{"type": "FeatureCollection", "name": "NUTS_LB_2024_4326_LEVL_3.geojson", "crs": {"type": "name", "properties": {"name": "urn:ogc:def:crs:EPSG::4326"}}, "features": [{"type": "Feature", "properties": {"NUTS_ID": "DE258", "LEVL_CODE": 3, "CNTR_CODE": "DE", "NAME_LATN": "Fürth, Landkreis", "NUTS_NAME": "Fürth, Landkreis", "MOUNT_TYPE": null, "URBN_TYPE": 1, "COAST_TYPE": null}, "geometry": {"type": "Point", "coordinates": [10.849666226000068, 49.446690541000066]}}, {"type": "Feature", "properties": {"NUTS_ID": "DE259", "LEVL_CODE": 3, "CNTR_CODE": "DE", "NAME_LATN": "Nürnberger Land", "NUTS_NAME": "Nürnberger Land", "MOUNT_TYPE": null, "URBN_TYPE": 2, "COAST_TYPE": null}, "geometry": {"type": "Point", "coordinates": [11.368967953000038, 49.49163780500004]}}, {"type": "Feature", "properties": {"NUTS_ID": "DE25A", "LEVL_CODE": 3, "CNTR_CODE": "DE", "NAME_LATN": "Neustadt a. d. Aisch-Bad Windsheim", "NUTS_NAME": "Neustadt a. d. Aisch-Bad Windsheim", "MOUNT_TYPE": null, "URBN_TYPE": 3, "COAST_TYPE": null}, "geometry": {"type": "Point", "coordinates": [10.465271578000056, 49.56946940800003]}}, {"type": "Feature", "properties": {"NUTS_ID": "DE25B", "LEVL_CODE": 3, "CNTR_CODE": "DE", "NAME_LATN": "Roth", "NUTS_NAME": "Roth", "MOUNT_TYPE": null, "URBN_TYPE": 2, "COAST_TYPE": null}, "geometry": {"type": "Point", "coordinates": [11.12357922700005, 49.20292437200004]}}, {"type": "Feature", "properties": {"NUTS_ID": "DE25C", "LEVL_CODE": 3, "CNTR_CODE": "DE", "NAME_LATN": "Weißenburg-Gunzenhausen", "NUTS_NAME": "Weißenburg-Gunzenhausen", "MOUNT_TYPE": null, "URBN_TYPE": 3, "COAST_TYPE": null}, "geometry": {"type": "Point", "coordinates": [10.893662534000043, 49.03266479400003]}}, {"type": "Feature", "properties": {"NUTS_ID": "DE261", "LEVL_CODE": 3, "CNTR_CODE": "DE", "NAME_LATN": "Aschaffenburg, Kreisfreie Stadt", "NUTS_NAME": "Aschaffenburg, Kreisfreie Stadt", "MOUNT_TYPE": null, "URBN_TYPE": 1, "COAST_TYPE": null}, "geometry": {"type": "Point", "coordinates": [9.145795080000028, 49.96386024200007]}}, {"type": "Feature", "properties": {"NUTS_ID": "DE262", "LEVL_CODE": 3, "CNTR_CODE": "DE", "NAME_LATN": "Schweinfurt, Kreisfreie Stadt", "NUTS_NAME": "Schweinfurt, Kreisfreie Stadt", "MOUNT_TYPE": null, "URBN_TYPE": 2, "COAST_TYPE": null}, "geometry": {"type": "Point", "coordinates": [10.220861523000053, 50.04710309300003]}}, {"type": "Feature", "properties": {"NUTS_ID": "DE263", "LEVL_CODE": 3, "CNTR_CODE": "DE", "NAME_LATN": "Würzburg, Kreisfreie Stadt", "NUTS_NAME": "Würzburg, Kreisfreie Stadt", "MOUNT_TYPE": null, "URBN_TYPE": 2, "COAST_TYPE": null}, "geometry": {"type": "Point", "coordinates": [9.940872226000067, 49.784699395000075]}}, {"type": "Feature", "properties": {"NUTS_ID": "DE264", "LEVL_CODE": 3, "CNTR_CODE": "DE", "NAME_LATN": "Aschaffenburg, Landkreis", "NUTS_NAME": "Aschaffenburg, Landkreis", "MOUNT_TYPE": null, "URBN_TYPE": 1, "COAST_TYPE": null}, "geometry": {"type": "Point", "coordinates": [9.23109450000004, 50.04489846600006]}}, {"type": "Feature", "properties": {"NUTS_ID": "DE265", "LEVL_CODE": 3, "CNTR_CODE": "DE", "NAME_LATN": "Bad Kissingen", "NUTS_NAME": "Bad Kissingen", "MOUNT_TYPE": null, "URBN_TYPE": 3, "COAST_TYPE": null}, "geometry": {"type": "Point", "coordinates": [9.96471441500006, 50.22253348000004]}}, {"type": "Feature", "properties": {"NUTS_ID": "DE266", "LEVL_CODE": 3, "CNTR_CODE": "DE", "NAME_LATN": "Rhön-Grabfeld", "NUTS_NAME": "Rhön-Grabfeld", "MOUNT_TYPE": null, "URBN_TYPE": 3, "COAST_TYPE": null}, "geometry": {"type": "Point", "coordinates": [10.265886500000022, 50.394988289000025]}}, {"type": "Feature", "properties": {"NUTS_ID": "DE267", "LEVL_CODE": 3, "CNTR_CODE": "DE", "NAME_LATN": "Haßberge", "NUTS_NAME": "Haßberge", "MOUNT_TYPE": null, "URBN_TYPE": 3, "COAST_TYPE": null}, "geometry": {"type": "Point", "coordinates": [10.606963188000066, 50.06289564200006]}}, {"type": "Feature", "properties": {"NUTS_ID": "DE268", "LEVL_CODE": 3, "CNTR_CODE": "DE", "NAME_LATN": "Kitzingen", "NUTS_NAME": "Kitzingen", "MOUNT_TYPE": null, "URBN_TYPE": 3, "COAST_TYPE": null}, "geometry": {"type": "Point", "coordinates": [10.256043619000025, 49.75323969300007]}}, {"type": "Feature", "properties": {"NUTS_ID": "DE269", "LEVL_CODE": 3, "CNTR_CODE": "DE", "NAME_LATN": "Miltenberg", "NUTS_NAME": "Miltenberg", "MOUNT_TYPE": 1, "URBN_TYPE": 2, "COAST_TYPE": null}, "geometry": {"type": "Point", "coordinates": [9.234770845000071, 49.75731413300008]}}, {"type": "Feature", "properties": {"NUTS_ID": "DE26A", "LEVL_CODE": 3, "CNTR_CODE": "DE", "NAME_LATN": "Main-Spessart", "NUTS_NAME": "Main-Spessart", "MOUNT_TYPE": null, "URBN_TYPE": 3, "COAST_TYPE": null}, "geometry": {"type": "Point", "coordinates": [9.662684710000065, 49.993583184000045]}}, {"type": "Feature", "properties": {"NUTS_ID": "DE26B", "LEVL_CODE": 3, "CNTR_CODE": "DE", "NAME_LATN": "Schweinfurt, Landkreis", "NUTS_NAME": "Schweinfurt, Landkreis", "MOUNT_TYPE": null, "URBN_TYPE": 2, "COAST_TYPE": null}, "geometry": {"type": "Point", "coordinates": [10.244217, 49.94965836100005]}}, {"type": "Feature", "properties": {"NUTS_ID": "DE26C", "LEVL_CODE": 3, "CNTR_CODE": "DE", "NAME_LATN": "Würzburg, Landkreis", "NUTS_NAME": "Würzburg, Landkreis", "MOUNT_TYPE": null, "URBN_TYPE": 2, "COAST_TYPE": null}, "geometry": {"type": "Point", "coordinates": [9.766377250000062, 49.79438127000003]}}, {"type": "Feature", "properties": {"NUTS_ID": "DE271", "LEVL_CODE": 3, "CNTR_CODE": "DE", "NAME_LATN": "Augsburg, Kreisfreie Stadt", "NUTS_NAME": "Augsburg, Kreisfreie Stadt", "MOUNT_TYPE": null, "URBN_TYPE": 1, "COAST_TYPE": null}, "geometry": {"type": "Point", "coordinates": [10.88550344400005, 48.34559334700003]}}, {"type": "Feature", "properties": {"NUTS_ID": "DE272", "LEVL_CODE": 3, "CNTR_CODE": "DE", "NAME_LATN": "Kaufbeuren, Kreisfreie Stadt", "NUTS_NAME": "Kaufbeuren, Kreisfreie Stadt", "MOUNT_TYPE": null, "URBN_TYPE": 2, "COAST_TYPE": null}, "geometry": {"type": "Point", "coordinates": [10.616090061000023, 47.879944812000076]}}, {"type": "Feature", "properties": {"NUTS_ID": "DE273", "LEVL_CODE": 3, "CNTR_CODE": "DE", "NAME_LATN": "Kempten (Allgäu), Kreisfreie Stadt", "NUTS_NAME": "Kempten (Allgäu), Kreisfreie Stadt", "MOUNT_TYPE": 1, "URBN_TYPE": 2, "COAST_TYPE": null}, "geometry": {"type": "Point", "coordinates": [10.308112133000066, 47.73821007400005]}}, {"type": "Feature", "properties": {"NUTS_ID": "DE274", "LEVL_CODE": 3, "CNTR_CODE": "DE", "NAME_LATN": "Memmingen, Kreisfreie Stadt", "NUTS_NAME": "Memmingen, Kreisfreie Stadt", "MOUNT_TYPE": null, "URBN_TYPE": 3, "COAST_TYPE": null}, "geometry": {"type": "Point", "coordinates": [10.163056974000028, 47.978770362000034]}}, {"type": "Feature", "properties": {"NUTS_ID": "DE275", "LEVL_CODE": 3, "CNTR_CODE": "DE", "NAME_LATN": "Aichach-Friedberg", "NUTS_NAME": "Aichach-Friedberg", "MOUNT_TYPE": null, "URBN_TYPE": 2, "COAST_TYPE": null}, "geometry": {"type": "Point", "coordinates": [11.052759872000024, 48.427572809000026]}}, {"type": "Feature", "properties": {"NUTS_ID": "DE276", "LEVL_CODE": 3, "CNTR_CODE": "DE", "NAME_LATN": "Augsburg, Landkreis", "NUTS_NAME": "Augsburg, Landkreis", "MOUNT_TYPE": null, "URBN_TYPE": 1, "COAST_TYPE": null}, "geometry": {"type": "Point", "coordinates": [10.732067351000069, 48.35428952900003]}}, {"type": "Feature", "properties": {"NUTS_ID": "DE277", "LEVL_CODE": 3, "CNTR_CODE": "DE", "NAME_LATN": "Dillingen a.d. Donau", "NUTS_NAME": "Dillingen a.d. Donau", "MOUNT_TYPE": null, "URBN_TYPE": 3, "COAST_TYPE": null}, "geometry": {"type": "Point", "coordinates": [10.527786010000057, 48.59640902500007]}}, {"type": "Feature", "properties": {"NUTS_ID": "DE278", "LEVL_CODE": 3, "CNTR_CODE": "DE", "NAME_LATN": "Günzburg", "NUTS_NAME": "Günzburg", "MOUNT_TYPE": null, "URBN_TYPE": 2, "COAST_TYPE": null}, "geometry": {"type": "Point", "coordinates": [10.381130350000035, 48.35281097100005]}}, {"type": "Feature", "properties": {"NUTS_ID": "DE279", "LEVL_CODE": 3, "CNTR_CODE": "DE", "NAME_LATN": "Neu-Ulm", "NUTS_NAME": "Neu-Ulm", "MOUNT_TYPE": null, "URBN_TYPE": 2, "COAST_TYPE": null}, "geometry": {"type": "Point", "coordinates": [10.141163500000062, 48.298213013000066]}}, {"type": "Feature", "properties": {"NUTS_ID": "DE27A", "LEVL_CODE": 3, "CNTR_CODE": "DE", "NAME_LATN": "Lindau (Bodensee)", "NUTS_NAME": "Lindau (Bodensee)", "MOUNT_TYPE": 1, "URBN_TYPE": 1, "COAST_TYPE": null}, "geometry": {"type": "Point", "coordinates": [9.856526447000022, 47.598867820000066]}}, {"type": "Feature", "properties": {"NUTS_ID": "DE27B", "LEVL_CODE": 3, "CNTR_CODE": "DE", "NAME_LATN": "Ostallgäu", "NUTS_NAME": "Ostallgäu", "MOUNT_TYPE": null, "URBN_TYPE": 2, "COAST_TYPE": null}, "geometry": {"type": "Point", "coordinates": [10.639004858000021, 47.77308955800004]}}, {"type": "Feature", "properties": {"NUTS_ID": "DE27C", "LEVL_CODE": 3, "CNTR_CODE": "DE", "NAME_LATN": "Unterallgäu", "NUTS_NAME": "Unterallgäu", "MOUNT_TYPE": null, "URBN_TYPE": 3, "COAST_TYPE": null}, "geometry": {"type": "Point", "coordinates": [10.391453229000035, 48.04025127800003]}}, {"type": "Feature", "properties": {"NUTS_ID": "DE27D", "LEVL_CODE": 3, "CNTR_CODE": "DE", "NAME_LATN": "Donau-Ries", "NUTS_NAME": "Donau-Ries", "MOUNT_TYPE": null, "URBN_TYPE": 3, "COAST_TYPE": null}, "geometry": {"type": "Point", "coordinates": [10.712344307000023, 48.80693638900004]}}, {"type": "Feature", "properties": {"NUTS_ID": "DE27E", "LEVL_CODE": 3, "CNTR_CODE": "DE", "NAME_LATN": "Oberallgäu", "NUTS_NAME": "Oberallgäu", "MOUNT_TYPE": 1, "URBN_TYPE": 2, "COAST_TYPE": null}, "geometry": {"type": "Point", "coordinates": [10.260600642000043, 47.579289248000066]}}, {"type": "Feature", "properties": {"NUTS_ID": "DE300", "LEVL_CODE": 3, "CNTR_CODE": "DE", "NAME_LATN": "Berlin", "NUTS_NAME": "Berlin", "MOUNT_TYPE": null, "URBN_TYPE": 1, "COAST_TYPE": null}, "geometry": {"type": "Point", "coordinates": [13.401859053000067, 52.50152895300005]}}, {"type": "Feature", "properties": {"NUTS_ID": "DE401", "LEVL_CODE": 3, "CNTR_CODE": "DE", "NAME_LATN": "Brandenburg an der Havel, Kreisfreie Stadt", "NUTS_NAME": "Brandenburg an der Havel, Kreisfreie Stadt", "MOUNT_TYPE": null, "URBN_TYPE": 2, "COAST_TYPE": null}, "geometry": {"type": "Point", "coordinates": [12.518401965000066, 52.402132133000066]}}, {"type": "Feature", "properties": {"NUTS_ID": "DE402", "LEVL_CODE": 3, "CNTR_CODE": "DE", "NAME_LATN": "Cottbus, Kreisfreie Stadt", "NUTS_NAME": "Cottbus, Kreisfreie Stadt", "MOUNT_TYPE": null, "URBN_TYPE": 2, "COAST_TYPE": null}, "geometry": {"type": "Point", "coordinates": [14.366286974000047, 51.77257911100003]}}, {"type": "Feature", "properties": {"NUTS_ID": "DE403", "LEVL_CODE": 3, "CNTR_CODE": "DE", "NAME_LATN": "Frankfurt (Oder), Kreisfreie Stadt", "NUTS_NAME": "Frankfurt (Oder), Kreisfreie Stadt", "MOUNT_TYPE": null, "URBN_TYPE": 2, "COAST_TYPE": null}, "geometry": {"type": "Point", "coordinates": [14.49030433300004, 52.324775646000035]}}, {"type": "Feature", "properties": {"NUTS_ID": "DE404", "LEVL_CODE": 3, "CNTR_CODE": "DE", "NAME_LATN": "Potsdam, Kreisfreie Stadt", "NUTS_NAME": "Potsdam, Kreisfreie Stadt", "MOUNT_TYPE": null, "URBN_TYPE": 2, "COAST_TYPE": null}, "geometry": {"type": "Point", "coordinates": [13.028707324000038, 52.426162893000026]}}, {"type": "Feature", "properties": {"NUTS_ID": "DE405", "LEVL_CODE": 3, "CNTR_CODE": "DE", "NAME_LATN": "Barnim", "NUTS_NAME": "Barnim", "MOUNT_TYPE": null, "URBN_TYPE": 2, "COAST_TYPE": null}, "geometry": {"type": "Point", "coordinates": [13.703738916000077, 52.823236645000065]}}, {"type": "Feature", "properties": {"NUTS_ID": "DE406", "LEVL_CODE": 3, "CNTR_CODE": "DE", "NAME_LATN": "Dahme-Spreewald", "NUTS_NAME": "Dahme-Spreewald", "MOUNT_TYPE": null, "URBN_TYPE": 2, "COAST_TYPE": null}, "geometry": {"type": "Point", "coordinates": [13.932183500000065, 52.015395572000045]}}, {"type": "Feature", "properties": {"NUTS_ID": "DE407", "LEVL_CODE": 3, "CNTR_CODE": "DE", "NAME_LATN": "Elbe-Elster", "NUTS_NAME": "Elbe-Elster", "MOUNT_TYPE": null, "URBN_TYPE": 3, "COAST_TYPE": null}, "geometry": {"type": "Point", "coordinates": [13.459564939000074, 51.61227724300005]}}, {"type": "Feature", "properties": {"NUTS_ID": "DE408", "LEVL_CODE": 3, "CNTR_CODE": "DE", "NAME_LATN": "Havelland", "NUTS_NAME": "Havelland", "MOUNT_TYPE": null, "URBN_TYPE": 2, "COAST_TYPE": null}, "geometry": {"type": "Point", "coordinates": [12.628343011000027, 52.620808476000036]}}, {"type": "Feature", "properties": {"NUTS_ID": "DE409", "LEVL_CODE": 3, "CNTR_CODE": "DE", "NAME_LATN": "Märkisch-Oderland", "NUTS_NAME": "Märkisch-Oderland", "MOUNT_TYPE": null, "URBN_TYPE": 2, "COAST_TYPE": null}, "geometry": {"type": "Point", "coordinates": [14.12516450000004, 52.64811091400003]}}, {"type": "Feature", "properties": {"NUTS_ID": "DE40A", "LEVL_CODE": 3, "CNTR_CODE": "DE", "NAME_LATN": "Oberhavel", "NUTS_NAME": "Oberhavel", "MOUNT_TYPE": null, "URBN_TYPE": 2, "COAST_TYPE": null}, "geometry": {"type": "Point", "coordinates": [13.205276512000069, 52.906816211000034]}}, {"type": "Feature", "properties": {"NUTS_ID": "DE40B", "LEVL_CODE": 3, "CNTR_CODE": "DE", "NAME_LATN": "Oberspreewald-Lausitz", "NUTS_NAME": "Oberspreewald-Lausitz", "MOUNT_TYPE": null, "URBN_TYPE": 3, "COAST_TYPE": null}, "geometry": {"type": "Point", "coordinates": [13.943579898000053, 51.61628954200006]}}, {"type": "Feature", "properties": {"NUTS_ID": "DE40C", "LEVL_CODE": 3, "CNTR_CODE": "DE", "NAME_LATN": "Oder-Spree", "NUTS_NAME": "Oder-Spree", "MOUNT_TYPE": null, "URBN_TYPE": 2, "COAST_TYPE": null}, "geometry": {"type": "Point", "coordinates": [14.219055918000038, 52.244020367000076]}}, {"type": "Feature", "properties": {"NUTS_ID": "DE40D", "LEVL_CODE": 3, "CNTR_CODE": "DE", "NAME_LATN": "Ostprignitz-Ruppin", "NUTS_NAME": "Ostprignitz-Ruppin", "MOUNT_TYPE": null, "URBN_TYPE": 3, "COAST_TYPE": null}, "geometry": {"type": "Point", "coordinates": [12.635978156000021, 52.99140762900004]}}, {"type": "Feature", "properties": {"NUTS_ID": "DE40E", "LEVL_CODE": 3, "CNTR_CODE": "DE", "NAME_LATN": "Potsdam-Mittelmark", "NUTS_NAME": "Potsdam-Mittelmark", "MOUNT_TYPE": null, "URBN_TYPE": 2, "COAST_TYPE": null}, "geometry": {"type": "Point", "coordinates": [12.764779500000031, 52.223005225000065]}}, {"type": "Feature", "properties": {"NUTS_ID": "DE40F", "LEVL_CODE": 3, "CNTR_CODE": "DE", "NAME_LATN": "Prignitz", "NUTS_NAME": "Prignitz", "MOUNT_TYPE": null, "URBN_TYPE": 3, "COAST_TYPE": null}, "geometry": {"type": "Point", "coordinates": [11.961884394000037, 53.109331300000065]}}, {"type": "Feature", "properties": {"NUTS_ID": "DE40G", "LEVL_CODE": 3, "CNTR_CODE": "DE", "NAME_LATN": "Spree-Neiße", "NUTS_NAME": "Spree-Neiße", "MOUNT_TYPE": null, "URBN_TYPE": 2, "COAST_TYPE": null}, "geometry": {"type": "Point", "coordinates": [14.419327500000065, 51.62250315600005]}}, {"type": "Feature", "properties": {"NUTS_ID": "DE40H", "LEVL_CODE": 3, "CNTR_CODE": "DE", "NAME_LATN": "Teltow-Fläming", "NUTS_NAME": "Teltow-Fläming", "MOUNT_TYPE": null, "URBN_TYPE": 2, "COAST_TYPE": null}, "geometry": {"type": "Point", "coordinates": [13.276047223000035, 52.073119002000055]}}, {"type": "Feature", "properties": {"NUTS_ID": "DE40I", "LEVL_CODE": 3, "CNTR_CODE": "DE", "NAME_LATN": "Uckermark", "NUTS_NAME": "Uckermark", "MOUNT_TYPE": null, "URBN_TYPE": 2, "COAST_TYPE": null}, "geometry": {"type": "Point", "coordinates": [13.861279917000047, 53.20590470900004]}}, {"type": "Feature", "properties": {"NUTS_ID": "DE501", "LEVL_CODE": 3, "CNTR_CODE": "DE", "NAME_LATN": "Bremen, Kreisfreie Stadt", "NUTS_NAME": "Bremen, Kreisfreie Stadt", "MOUNT_TYPE": null, "URBN_TYPE": 1, "COAST_TYPE": 1}, "geometry": {"type": "Point", "coordinates": [8.78605314300006, 53.10863818000007]}}, {"type": "Feature", "properties": {"NUTS_ID": "DE502", "LEVL_CODE": 3, "CNTR_CODE": "DE", "NAME_LATN": "Bremerhaven, Kreisfreie Stadt", "NUTS_NAME": "Bremerhaven, Kreisfreie Stadt", "MOUNT_TYPE": null, "URBN_TYPE": 2, "COAST_TYPE": 1}, "geometry": {"type": "Point", "coordinates": [8.61226350000004, 53.54471493500006]}}, {"type": "Feature", "properties": {"NUTS_ID": "DE600", "LEVL_CODE": 3, "CNTR_CODE": "DE", "NAME_LATN": "Hamburg", "NUTS_NAME": "Hamburg", "MOUNT_TYPE": null, "URBN_TYPE": 1, "COAST_TYPE": 1}, "geometry": {"type": "Point", "coordinates": [10.02698799600006, 53.54464619300006]}}, {"type": "Feature", "properties": {"NUTS_ID": "DE711", "LEVL_CODE": 3, "CNTR_CODE": "DE", "NAME_LATN": "Darmstadt, Kreisfreie Stadt", "NUTS_NAME": "Darmstadt, Kreisfreie Stadt", "MOUNT_TYPE": null, "URBN_TYPE": 1, "COAST_TYPE": null}, "geometry": {"type": "Point", "coordinates": [8.664878798000075, 49.881614495000065]}}, {"type": "Feature", "properties": {"NUTS_ID": "DE712", "LEVL_CODE": 3, "CNTR_CODE": "DE", "NAME_LATN": "Frankfurt am Main, Kreisfreie Stadt", "NUTS_NAME": "Frankfurt am Main, Kreisfreie Stadt", "MOUNT_TYPE": null, "URBN_TYPE": 1, "COAST_TYPE": null}, "geometry": {"type": "Point", "coordinates": [8.64416704000007, 50.11795921400005]}}, {"type": "Feature", "properties": {"NUTS_ID": "DE713", "LEVL_CODE": 3, "CNTR_CODE": "DE", "NAME_LATN": "Offenbach am Main, Kreisfreie Stadt", "NUTS_NAME": "Offenbach am Main, Kreisfreie Stadt", "MOUNT_TYPE": null, "URBN_TYPE": 1, "COAST_TYPE": null}, "geometry": {"type": "Point", "coordinates": [8.78082609300003, 50.09112119200006]}}, {"type": "Feature", "properties": {"NUTS_ID": "DE714", "LEVL_CODE": 3, "CNTR_CODE": "DE", "NAME_LATN": "Wiesbaden, Kreisfreie Stadt", "NUTS_NAME": "Wiesbaden, Kreisfreie Stadt", "MOUNT_TYPE": null, "URBN_TYPE": 1, "COAST_TYPE": null}, "geometry": {"type": "Point", "coordinates": [8.260387064000042, 50.07919834300003]}}, {"type": "Feature", "properties": {"NUTS_ID": "DE715", "LEVL_CODE": 3, "CNTR_CODE": "DE", "NAME_LATN": "Bergstraße", "NUTS_NAME": "Bergstraße", "MOUNT_TYPE": null, "URBN_TYPE": 1, "COAST_TYPE": null}, "geometry": {"type": "Point", "coordinates": [8.633485250000035, 49.67199453100005]}}, {"type": "Feature", "properties": {"NUTS_ID": "DE716", "LEVL_CODE": 3, "CNTR_CODE": "DE", "NAME_LATN": "Darmstadt-Dieburg", "NUTS_NAME": "Darmstadt-Dieburg", "MOUNT_TYPE": null, "URBN_TYPE": 1, "COAST_TYPE": null}, "geometry": {"type": "Point", "coordinates": [8.795381853000038, 49.855482875000064]}}, {"type": "Feature", "properties": {"NUTS_ID": "DE717", "LEVL_CODE": 3, "CNTR_CODE": "DE", "NAME_LATN": "Groß-Gerau", "NUTS_NAME": "Groß-Gerau", "MOUNT_TYPE": null, "URBN_TYPE": 1, "COAST_TYPE": null}, "geometry": {"type": "Point", "coordinates": [8.47023686500006, 49.90442567500003]}}, {"type": "Feature", "properties": {"NUTS_ID": "DE718", "LEVL_CODE": 3, "CNTR_CODE": "DE", "NAME_LATN": "Hochtaunuskreis", "NUTS_NAME": "Hochtaunuskreis", "MOUNT_TYPE": 1, "URBN_TYPE": 1, "COAST_TYPE": null}, "geometry": {"type": "Point", "coordinates": [8.504686930000048, 50.28162314800005]}}, {"type": "Feature", "properties": {"NUTS_ID": "DE719", "LEVL_CODE": 3, "CNTR_CODE": "DE", "NAME_LATN": "Main-Kinzig-Kreis", "NUTS_NAME": "Main-Kinzig-Kreis", "MOUNT_TYPE": null, "URBN_TYPE": 1, "COAST_TYPE": null}, "geometry": {"type": "Point", "coordinates": [9.28624925400004, 50.243849167000064]}}, {"type": "Feature", "properties": {"NUTS_ID": "DE71A", "LEVL_CODE": 3, "CNTR_CODE": "DE", "NAME_LATN": "Main-Taunus-Kreis", "NUTS_NAME": "Main-Taunus-Kreis", "MOUNT_TYPE": null, "URBN_TYPE": 1, "COAST_TYPE": null}, "geometry": {"type": "Point", "coordinates": [8.434565575000022, 50.10257738300004]}}, {"type": "Feature", "properties": {"NUTS_ID": "DE71B", "LEVL_CODE": 3, "CNTR_CODE": "DE", "NAME_LATN": "Odenwaldkreis", "NUTS_NAME": "Odenwaldkreis", "MOUNT_TYPE": 1, "URBN_TYPE": 3, "COAST_TYPE": null}, "geometry": {"type": "Point", "coordinates": [8.979518539000026, 49.67163106100003]}}, {"type": "Feature", "properties": {"NUTS_ID": "DE71C", "LEVL_CODE": 3, "CNTR_CODE": "DE", "NAME_LATN": "Offenbach, Landkreis", "NUTS_NAME": "Offenbach, Landkreis", "MOUNT_TYPE": null, "URBN_TYPE": 1, "COAST_TYPE": null}, "geometry": {"type": "Point", "coordinates": [8.819855500000074, 50.00987813200004]}}, {"type": "Feature", "properties": {"NUTS_ID": "DE71D", "LEVL_CODE": 3, "CNTR_CODE": "DE", "NAME_LATN": "Rheingau-Taunus-Kreis", "NUTS_NAME": "Rheingau-Taunus-Kreis", "MOUNT_TYPE": 1, "URBN_TYPE": 2, "COAST_TYPE": null}, "geometry": {"type": "Point", "coordinates": [8.081150171000047, 50.14198164000004]}}, {"type": "Feature", "properties": {"NUTS_ID": "DE71E", "LEVL_CODE": 3, "CNTR_CODE": "DE", "NAME_LATN": "Wetteraukreis", "NUTS_NAME": "Wetteraukreis", "MOUNT_TYPE": null, "URBN_TYPE": 2, "COAST_TYPE": null}, "geometry": {"type": "Point", "coordinates": [8.907735196000033, 50.35475166800006]}}, {"type": "Feature", "properties": {"NUTS_ID": "DE721", "LEVL_CODE": 3, "CNTR_CODE": "DE", "NAME_LATN": "Gießen, Landkreis", "NUTS_NAME": "Gießen, Landkreis", "MOUNT_TYPE": null, "URBN_TYPE": 2, "COAST_TYPE": null}, "geometry": {"type": "Point", "coordinates": [8.807545809000032, 50.57023993300004]}}, {"type": "Feature", "properties": {"NUTS_ID": "DE722", "LEVL_CODE": 3, "CNTR_CODE": "DE", "NAME_LATN": "Lahn-Dill-Kreis", "NUTS_NAME": "Lahn-Dill-Kreis", "MOUNT_TYPE": null, "URBN_TYPE": 2, "COAST_TYPE": null}, "geometry": {"type": "Point", "coordinates": [8.365328562000059, 50.648233067000035]}}, {"type": "Feature", "properties": {"NUTS_ID": "DE723", "LEVL_CODE": 3, "CNTR_CODE": "DE", "NAME_LATN": "Limburg-Weilburg", "NUTS_NAME": "Limburg-Weilburg", "MOUNT_TYPE": null, "URBN_TYPE": 2, "COAST_TYPE": null}, "geometry": {"type": "Point", "coordinates": [8.19938075300007, 50.427430307000066]}}, {"type": "Feature", "properties": {"NUTS_ID": "DE724", "LEVL_CODE": 3, "CNTR_CODE": "DE", "NAME_LATN": "Marburg-Biedenkopf", "NUTS_NAME": "Marburg-Biedenkopf", "MOUNT_TYPE": null, "URBN_TYPE": 2, "COAST_TYPE": null}, "geometry": {"type": "Point", "coordinates": [8.73803945000003, 50.83686649900005]}}, {"type": "Feature", "properties": {"NUTS_ID": "DE725", "LEVL_CODE": 3, "CNTR_CODE": "DE", "NAME_LATN": "Vogelsbergkreis", "NUTS_NAME": "Vogelsbergkreis", "MOUNT_TYPE": null, "URBN_TYPE": 3, "COAST_TYPE": null}, "geometry": {"type": "Point", "coordinates": [9.27138067900006, 50.63811584200005]}}, {"type": "Feature", "properties": {"NUTS_ID": "DE731", "LEVL_CODE": 3, "CNTR_CODE": "DE", "NAME_LATN": "Kassel, Kreisfreie Stadt", "NUTS_NAME": "Kassel, Kreisfreie Stadt", "MOUNT_TYPE": null, "URBN_TYPE": 2, "COAST_TYPE": null}, "geometry": {"type": "Point", "coordinates": [9.459709561000068, 51.31113408500005]}}, {"type": "Feature", "properties": {"NUTS_ID": "DE732", "LEVL_CODE": 3, "CNTR_CODE": "DE", "NAME_LATN": "Fulda", "NUTS_NAME": "Fulda", "MOUNT_TYPE": null, "URBN_TYPE": 2, "COAST_TYPE": null}, "geometry": {"type": "Point", "coordinates": [9.759144510000056, 50.56388343300006]}}, {"type": "Feature", "properties": {"NUTS_ID": "DE733", "LEVL_CODE": 3, "CNTR_CODE": "DE", "NAME_LATN": "Hersfeld-Rotenburg", "NUTS_NAME": "Hersfeld-Rotenburg", "MOUNT_TYPE": null, "URBN_TYPE": 3, "COAST_TYPE": null}, "geometry": {"type": "Point", "coordinates": [9.748573, 50.933496571000035]}}, {"type": "Feature", "properties": {"NUTS_ID": "DE734", "LEVL_CODE": 3, "CNTR_CODE": "DE", "NAME_LATN": "Kassel, Landkreis", "NUTS_NAME": "Kassel, Landkreis", "MOUNT_TYPE": null, "URBN_TYPE": 2, "COAST_TYPE": null}, "geometry": {"type": "Point", "coordinates": [9.259556875000044, 51.348376305000045]}}, {"type": "Feature", "properties": {"NUTS_ID": "DE735", "LEVL_CODE": 3, "CNTR_CODE": "DE", "NAME_LATN": "Schwalm-Eder-Kreis", "NUTS_NAME": "Schwalm-Eder-Kreis", "MOUNT_TYPE": null, "URBN_TYPE": 3, "COAST_TYPE": null}, "geometry": {"type": "Point", "coordinates": [9.373678662000032, 51.023789805000035]}}, {"type": "Feature", "properties": {"NUTS_ID": "DE736", "LEVL_CODE": 3, "CNTR_CODE": "DE", "NAME_LATN": "Waldeck-Frankenberg", "NUTS_NAME": "Waldeck-Frankenberg", "MOUNT_TYPE": null, "URBN_TYPE": 3, "COAST_TYPE": null}, "geometry": {"type": "Point", "coordinates": [8.88886836100005, 51.19066696500005]}}, {"type": "Feature", "properties": {"NUTS_ID": "DE737", "LEVL_CODE": 3, "CNTR_CODE": "DE", "NAME_LATN": "Werra-Meißner-Kreis", "NUTS_NAME": "Werra-Meißner-Kreis", "MOUNT_TYPE": 1, "URBN_TYPE": 3, "COAST_TYPE": null}, "geometry": {"type": "Point", "coordinates": [9.928910918000042, 51.19076654600008]}}, {"type": "Feature", "properties": {"NUTS_ID": "DE803", "LEVL_CODE": 3, "CNTR_CODE": "DE", "NAME_LATN": "Rostock, Kreisfreie Stadt", "NUTS_NAME": "Rostock, Kreisfreie Stadt", "MOUNT_TYPE": null, "URBN_TYPE": 2, "COAST_TYPE": 1}, "geometry": {"type": "Point", "coordinates": [12.21987587500007, 54.21279638900006]}}, {"type": "Feature", "properties": {"NUTS_ID": "DE804", "LEVL_CODE": 3, "CNTR_CODE": "DE", "NAME_LATN": "Schwerin, Kreisfreie Stadt", "NUTS_NAME": "Schwerin, Kreisfreie Stadt", "MOUNT_TYPE": null, "URBN_TYPE": 3, "COAST_TYPE": 1}, "geometry": {"type": "Point", "coordinates": [11.416698927000027, 53.62141823600007]}}, {"type": "Feature", "properties": {"NUTS_ID": "DE80J", "LEVL_CODE": 3, "CNTR_CODE": "DE", "NAME_LATN": "Mecklenburgische Seenplatte", "NUTS_NAME": "Mecklenburgische Seenplatte", "MOUNT_TYPE": null, "URBN_TYPE": 3, "COAST_TYPE": null}, "geometry": {"type": "Point", "coordinates": [13.002511894000065, 53.54367926500004]}}, {"type": "Feature", "properties": {"NUTS_ID": "DE80K", "LEVL_CODE": 3, "CNTR_CODE": "DE", "NAME_LATN": "Landkreis Rostock", "NUTS_NAME": "Landkreis Rostock", "MOUNT_TYPE": null, "URBN_TYPE": 3, "COAST_TYPE": 1}, "geometry": {"type": "Point", "coordinates": [12.170371500000044, 53.854231981000055]}}, {"type": "Feature", "properties": {"NUTS_ID": "DE80L", "LEVL_CODE": 3, "CNTR_CODE": "DE", "NAME_LATN": "Vorpommern-Rügen", "NUTS_NAME": "Vorpommern-Rügen", "MOUNT_TYPE": null, "URBN_TYPE": 3, "COAST_TYPE": 1}, "geometry": {"type": "Point", "coordinates": [12.814354923000053, 54.213115826000035]}}, {"type": "Feature", "properties": {"NUTS_ID": "DE80M", "LEVL_CODE": 3, "CNTR_CODE": "DE", "NAME_LATN": "Nordwestmecklenburg", "NUTS_NAME": "Nordwestmecklenburg", "MOUNT_TYPE": null, "URBN_TYPE": 3, "COAST_TYPE": 1}, "geometry": {"type": "Point", "coordinates": [11.249092909000069, 53.81853008300004]}}, {"type": "Feature", "properties": {"NUTS_ID": "DE80N", "LEVL_CODE": 3, "CNTR_CODE": "DE", "NAME_LATN": "Vorpommern-Greifswald", "NUTS_NAME": "Vorpommern-Greifswald", "MOUNT_TYPE": null, "URBN_TYPE": 2, "COAST_TYPE": 1}, "geometry": {"type": "Point", "coordinates": [14.055848625000067, 53.583116422000046]}}, {"type": "Feature", "properties": {"NUTS_ID": "DE80O", "LEVL_CODE": 3, "CNTR_CODE": "DE", "NAME_LATN": "Ludwigslust-Parchim", "NUTS_NAME": "Ludwigslust-Parchim", "MOUNT_TYPE": null, "URBN_TYPE": 3, "COAST_TYPE": null}, "geometry": {"type": "Point", "coordinates": [11.480043, 53.343421127000056]}}, {"type": "Feature", "properties": {"NUTS_ID": "DE911", "LEVL_CODE": 3, "CNTR_CODE": "DE", "NAME_LATN": "Braunschweig, Kreisfreie Stadt", "NUTS_NAME": "Braunschweig, Kreisfreie Stadt", "MOUNT_TYPE": null, "URBN_TYPE": 2, "COAST_TYPE": null}, "geometry": {"type": "Point", "coordinates": [10.52419597000005, 52.275303328000064]}}, {"type": "Feature", "properties": {"NUTS_ID": "DE912", "LEVL_CODE": 3, "CNTR_CODE": "DE", "NAME_LATN": "Salzgitter, Kreisfreie Stadt", "NUTS_NAME": "Salzgitter, Kreisfreie Stadt", "MOUNT_TYPE": null, "URBN_TYPE": 2, "COAST_TYPE": null}, "geometry": {"type": "Point", "coordinates": [10.370767085000068, 52.12443855600003]}}, {"type": "Feature", "properties": {"NUTS_ID": "DE913", "LEVL_CODE": 3, "CNTR_CODE": "DE", "NAME_LATN": "Wolfsburg, Kreisfreie Stadt", "NUTS_NAME": "Wolfsburg, Kreisfreie Stadt", "MOUNT_TYPE": null, "URBN_TYPE": 2, "COAST_TYPE": null}, "geometry": {"type": "Point", "coordinates": [10.784984694000059, 52.41075000400008]}}, {"type": "Feature", "properties": {"NUTS_ID": "DE914", "LEVL_CODE": 3, "CNTR_CODE": "DE", "NAME_LATN": "Gifhorn", "NUTS_NAME": "Gifhorn", "MOUNT_TYPE": null, "URBN_TYPE": 2, "COAST_TYPE": null}, "geometry": {"type": "Point", "coordinates": [10.604182070000036, 52.58027450700007]}}, {"type": "Feature", "properties": {"NUTS_ID": "DE916", "LEVL_CODE": 3, "CNTR_CODE": "DE", "NAME_LATN": "Goslar", "NUTS_NAME": "Goslar", "MOUNT_TYPE": 1, "URBN_TYPE": 2, "COAST_TYPE": null}, "geometry": {"type": "Point", "coordinates": [10.383449, 51.907025830000066]}}, {"type": "Feature", "properties": {"NUTS_ID": "DE917", "LEVL_CODE": 3, "CNTR_CODE": "DE", "NAME_LATN": "Helmstedt", "NUTS_NAME": "Helmstedt", "MOUNT_TYPE": null, "URBN_TYPE": 3, "COAST_TYPE": null}, "geometry": {"type": "Point", "coordinates": [10.88883519600006, 52.26073533400006]}}, {"type": "Feature", "properties": {"NUTS_ID": "DE918", "LEVL_CODE": 3, "CNTR_CODE": "DE", "NAME_LATN": "Northeim", "NUTS_NAME": "Northeim", "MOUNT_TYPE": null, "URBN_TYPE": 3, "COAST_TYPE": null}, "geometry": {"type": "Point", "coordinates": [9.849063517000047, 51.74351788300004]}}, {"type": "Feature", "properties": {"NUTS_ID": "DE91A", "LEVL_CODE": 3, "CNTR_CODE": "DE", "NAME_LATN": "Peine", "NUTS_NAME": "Peine", "MOUNT_TYPE": null, "URBN_TYPE": 2, "COAST_TYPE": null}, "geometry": {"type": "Point", "coordinates": [10.25533589400004, 52.30420754600004]}}, {"type": "Feature", "properties": {"NUTS_ID": "DE91B", "LEVL_CODE": 3, "CNTR_CODE": "DE", "NAME_LATN": "Wolfenbüttel", "NUTS_NAME": "Wolfenbüttel", "MOUNT_TYPE": null, "URBN_TYPE": 2, "COAST_TYPE": null}, "geometry": {"type": "Point", "coordinates": [10.647046239000076, 52.135371328000076]}}, {"type": "Feature", "properties": {"NUTS_ID": "DE91C", "LEVL_CODE": 3, "CNTR_CODE": "DE", "NAME_LATN": "Göttingen", "NUTS_NAME": "Göttingen", "MOUNT_TYPE": null, "URBN_TYPE": 2, "COAST_TYPE": null}, "geometry": {"type": "Point", "coordinates": [10.115461, 51.52223910400005]}}, {"type": "Feature", "properties": {"NUTS_ID": "DE922", "LEVL_CODE": 3, "CNTR_CODE": "DE", "NAME_LATN": "Diepholz", "NUTS_NAME": "Diepholz", "MOUNT_TYPE": null, "URBN_TYPE": 2, "COAST_TYPE": null}, "geometry": {"type": "Point", "coordinates": [8.701815804000034, 52.72845326500004]}}, {"type": "Feature", "properties": {"NUTS_ID": "DE923", "LEVL_CODE": 3, "CNTR_CODE": "DE", "NAME_LATN": "Hameln-Pyrmont", "NUTS_NAME": "Hameln-Pyrmont", "MOUNT_TYPE": null, "URBN_TYPE": 2, "COAST_TYPE": null}, "geometry": {"type": "Point", "coordinates": [9.389889827000047, 52.095093140000074]}}, {"type": "Feature", "properties": {"NUTS_ID": "DE925", "LEVL_CODE": 3, "CNTR_CODE": "DE", "NAME_LATN": "Hildesheim", "NUTS_NAME": "Hildesheim", "MOUNT_TYPE": null, "URBN_TYPE": 2, "COAST_TYPE": null}, "geometry": {"type": "Point", "coordinates": [9.943430266000064, 52.09028996600006]}}, {"type": "Feature", "properties": {"NUTS_ID": "DE926", "LEVL_CODE": 3, "CNTR_CODE": "DE", "NAME_LATN": "Holzminden", "NUTS_NAME": "Holzminden", "MOUNT_TYPE": null, "URBN_TYPE": 3, "COAST_TYPE": null}, "geometry": {"type": "Point", "coordinates": [9.551421938000033, 51.88055902100007]}}, {"type": "Feature", "properties": {"NUTS_ID": "DE927", "LEVL_CODE": 3, "CNTR_CODE": "DE", "NAME_LATN": "Nienburg (Weser)", "NUTS_NAME": "Nienburg (Weser)", "MOUNT_TYPE": null, "URBN_TYPE": 3, "COAST_TYPE": null}, "geometry": {"type": "Point", "coordinates": [9.114352391000068, 52.60920651400005]}}, {"type": "Feature", "properties": {"NUTS_ID": "DE928", "LEVL_CODE": 3, "CNTR_CODE": "DE", "NAME_LATN": "Schaumburg", "NUTS_NAME": "Schaumburg", "MOUNT_TYPE": null, "URBN_TYPE": 2, "COAST_TYPE": null}, "geometry": {"type": "Point", "coordinates": [9.206547320000027, 52.29276421800006]}}, {"type": "Feature", "properties": {"NUTS_ID": "DE929", "LEVL_CODE": 3, "CNTR_CODE": "DE", "NAME_LATN": "Region Hannover", "NUTS_NAME": "Region Hannover", "MOUNT_TYPE": null, "URBN_TYPE": 1, "COAST_TYPE": null}, "geometry": {"type": "Point", "coordinates": [9.719755292000059, 52.421910368000056]}}, {"type": "Feature", "properties": {"NUTS_ID": "DE931", "LEVL_CODE": 3, "CNTR_CODE": "DE", "NAME_LATN": "Celle", "NUTS_NAME": "Celle", "MOUNT_TYPE": null, "URBN_TYPE": 2, "COAST_TYPE": null}, "geometry": {"type": "Point", "coordinates": [10.103536696000049, 52.71331537600008]}}, {"type": "Feature", "properties": {"NUTS_ID": "DE932", "LEVL_CODE": 3, "CNTR_CODE": "DE", "NAME_LATN": "Cuxhaven", "NUTS_NAME": "Cuxhaven", "MOUNT_TYPE": null, "URBN_TYPE": 2, "COAST_TYPE": 1}, "geometry": {"type": "Point", "coordinates": [8.812397174000068, 53.61660136000006]}}, {"type": "Feature", "properties": {"NUTS_ID": "DE933", "LEVL_CODE": 3, "CNTR_CODE": "DE", "NAME_LATN": "Harburg", "NUTS_NAME": "Harburg", "MOUNT_TYPE": null, "URBN_TYPE": 2, "COAST_TYPE": null}, "geometry": {"type": "Point", "coordinates": [9.962772092000023, 53.31577585100007]}}, {"type": "Feature", "properties": {"NUTS_ID": "DE934", "LEVL_CODE": 3, "CNTR_CODE": "DE", "NAME_LATN": "Lüchow-Dannenberg", "NUTS_NAME": "Lüchow-Dannenberg", "MOUNT_TYPE": null, "URBN_TYPE": 3, "COAST_TYPE": null}, "geometry": {"type": "Point", "coordinates": [11.122995845000048, 53.019844902000045]}}, {"type": "Feature", "properties": {"NUTS_ID": "DE935", "LEVL_CODE": 3, "CNTR_CODE": "DE", "NAME_LATN": "Lüneburg, Landkreis", "NUTS_NAME": "Lüneburg, Landkreis", "MOUNT_TYPE": null, "URBN_TYPE": 2, "COAST_TYPE": null}, "geometry": {"type": "Point", "coordinates": [10.615709, 53.279911940000034]}}, {"type": "Feature", "properties": {"NUTS_ID": "DE936", "LEVL_CODE": 3, "CNTR_CODE": "DE", "NAME_LATN": "Osterholz", "NUTS_NAME": "Osterholz", "MOUNT_TYPE": null, "URBN_TYPE": 2, "COAST_TYPE": 1}, "geometry": {"type": "Point", "coordinates": [8.808052149000048, 53.251009132000036]}}, {"type": "Feature", "properties": {"NUTS_ID": "DE937", "LEVL_CODE": 3, "CNTR_CODE": "DE", "NAME_LATN": "Rotenburg (Wümme)", "NUTS_NAME": "Rotenburg (Wümme)", "MOUNT_TYPE": null, "URBN_TYPE": 3, "COAST_TYPE": null}, "geometry": {"type": "Point", "coordinates": [9.306594119000067, 53.25073542300004]}}, {"type": "Feature", "properties": {"NUTS_ID": "DE938", "LEVL_CODE": 3, "CNTR_CODE": "DE", "NAME_LATN": "Heidekreis", "NUTS_NAME": "Heidekreis", "MOUNT_TYPE": null, "URBN_TYPE": 2, "COAST_TYPE": null}, "geometry": {"type": "Point", "coordinates": [9.769365973000049, 52.92832422300006]}}, {"type": "Feature", "properties": {"NUTS_ID": "DE939", "LEVL_CODE": 3, "CNTR_CODE": "DE", "NAME_LATN": "Stade", "NUTS_NAME": "Stade", "MOUNT_TYPE": null, "URBN_TYPE": 2, "COAST_TYPE": 1}, "geometry": {"type": "Point", "coordinates": [9.417116716000066, 53.57907696500007]}}, {"type": "Feature", "properties": {"NUTS_ID": "DE93A", "LEVL_CODE": 3, "CNTR_CODE": "DE", "NAME_LATN": "Uelzen", "NUTS_NAME": "Uelzen", "MOUNT_TYPE": null, "URBN_TYPE": 3, "COAST_TYPE": null}, "geometry": {"type": "Point", "coordinates": [10.54808554400006, 52.98354308100005]}}, {"type": "Feature", "properties": {"NUTS_ID": "DE93B", "LEVL_CODE": 3, "CNTR_CODE": "DE", "NAME_LATN": "Verden", "NUTS_NAME": "Verden", "MOUNT_TYPE": null, "URBN_TYPE": 2, "COAST_TYPE": null}, "geometry": {"type": "Point", "coordinates": [9.175484464000021, 52.97320620000005]}}, {"type": "Feature", "properties": {"NUTS_ID": "DE941", "LEVL_CODE": 3, "CNTR_CODE": "DE", "NAME_LATN": "Delmenhorst, Kreisfreie Stadt", "NUTS_NAME": "Delmenhorst, Kreisfreie Stadt", "MOUNT_TYPE": null, "URBN_TYPE": 1, "COAST_TYPE": 1}, "geometry": {"type": "Point", "coordinates": [8.64561238400006, 53.04939864500005]}}, {"type": "Feature", "properties": {"NUTS_ID": "DE942", "LEVL_CODE": 3, "CNTR_CODE": "DE", "NAME_LATN": "Emden, Kreisfreie Stadt", "NUTS_NAME": "Emden, Kreisfreie Stadt", "MOUNT_TYPE": null, "URBN_TYPE": 2, "COAST_TYPE": 1}, "geometry": {"type": "Point", "coordinates": [7.180594065000037, 53.36105941400007]}}, {"type": "Feature", "properties": {"NUTS_ID": "DE943", "LEVL_CODE": 3, "CNTR_CODE": "DE", "NAME_LATN": "Oldenburg (Oldenburg), Kreisfreie Stadt", "NUTS_NAME": "Oldenburg (Oldenburg), Kreisfreie Stadt", "MOUNT_TYPE": null, "URBN_TYPE": 1, "COAST_TYPE": 1}, "geometry": {"type": "Point", "coordinates": [8.224339261000068, 53.14457234900004]}}, {"type": "Feature", "properties": {"NUTS_ID": "DE944", "LEVL_CODE": 3, "CNTR_CODE": "DE", "NAME_LATN": "Osnabrück, Kreisfreie Stadt", "NUTS_NAME": "Osnabrück, Kreisfreie Stadt", "MOUNT_TYPE": null, "URBN_TYPE": 2, "COAST_TYPE": null}, "geometry": {"type": "Point", "coordinates": [8.046971306000046, 52.277664120000054]}}, {"type": "Feature", "properties": {"NUTS_ID": "DE945", "LEVL_CODE": 3, "CNTR_CODE": "DE", "NAME_LATN": "Wilhelmshaven, Kreisfreie Stadt", "NUTS_NAME": "Wilhelmshaven, Kreisfreie Stadt", "MOUNT_TYPE": null, "URBN_TYPE": 2, "COAST_TYPE": 1}, "geometry": {"type": "Point", "coordinates": [8.087572849000026, 53.566840812000066]}}, {"type": "Feature", "properties": {"NUTS_ID": "DE946", "LEVL_CODE": 3, "CNTR_CODE": "DE", "NAME_LATN": "Ammerland", "NUTS_NAME": "Ammerland", "MOUNT_TYPE": null, "URBN_TYPE": 1, "COAST_TYPE": 1}, "geometry": {"type": "Point", "coordinates": [8.00608150000005, 53.190312031000076]}}, {"type": "Feature", "properties": {"NUTS_ID": "DE947", "LEVL_CODE": 3, "CNTR_CODE": "DE", "NAME_LATN": "Aurich", "NUTS_NAME": "Aurich", "MOUNT_TYPE": null, "URBN_TYPE": 2, "COAST_TYPE": 1}, "geometry": {"type": "Point", "coordinates": [7.377229458000045, 53.48908133800006]}}, {"type": "Feature", "properties": {"NUTS_ID": "DE948", "LEVL_CODE": 3, "CNTR_CODE": "DE", "NAME_LATN": "Cloppenburg", "NUTS_NAME": "Cloppenburg", "MOUNT_TYPE": null, "URBN_TYPE": 2, "COAST_TYPE": null}, "geometry": {"type": "Point", "coordinates": [7.935364250000021, 52.89356560700003]}}, {"type": "Feature", "properties": {"NUTS_ID": "DE949", "LEVL_CODE": 3, "CNTR_CODE": "DE", "NAME_LATN": "Emsland", "NUTS_NAME": "Emsland", "MOUNT_TYPE": null, "URBN_TYPE": 2, "COAST_TYPE": null}, "geometry": {"type": "Point", "coordinates": [7.402686546000041, 52.73829400100004]}}, {"type": "Feature", "properties": {"NUTS_ID": "DE94A", "LEVL_CODE": 3, "CNTR_CODE": "DE", "NAME_LATN": "Friesland (DE)", "NUTS_NAME": "Friesland (DE)", "MOUNT_TYPE": null, "URBN_TYPE": 2, "COAST_TYPE": 1}, "geometry": {"type": "Point", "coordinates": [7.983800110000061, 53.50537392800004]}}, {"type": "Feature", "properties": {"NUTS_ID": "DE94B", "LEVL_CODE": 3, "CNTR_CODE": "DE", "NAME_LATN": "Grafschaft Bentheim", "NUTS_NAME": "Grafschaft Bentheim", "MOUNT_TYPE": null, "URBN_TYPE": 2, "COAST_TYPE": null}, "geometry": {"type": "Point", "coordinates": [6.999174750000066, 52.53136038500003]}}, {"type": "Feature", "properties": {"NUTS_ID": "DE94C", "LEVL_CODE": 3, "CNTR_CODE": "DE", "NAME_LATN": "Leer", "NUTS_NAME": "Leer", "MOUNT_TYPE": null, "URBN_TYPE": 2, "COAST_TYPE": 1}, "geometry": {"type": "Point", "coordinates": [7.50105261300007, 53.230303339000045]}}, {"type": "Feature", "properties": {"NUTS_ID": "DE94D", "LEVL_CODE": 3, "CNTR_CODE": "DE", "NAME_LATN": "Oldenburg, Landkreis", "NUTS_NAME": "Oldenburg, Landkreis", "MOUNT_TYPE": null, "URBN_TYPE": 2, "COAST_TYPE": 1}, "geometry": {"type": "Point", "coordinates": [8.38939403300003, 52.988069910000036]}}, {"type": "Feature", "properties": {"NUTS_ID": "DE94E", "LEVL_CODE": 3, "CNTR_CODE": "DE", "NAME_LATN": "Osnabrück, Landkreis", "NUTS_NAME": "Osnabrück, Landkreis", "MOUNT_TYPE": null, "URBN_TYPE": 2, "COAST_TYPE": null}, "geometry": {"type": "Point", "coordinates": [7.832337625000036, 52.53759335500007]}}, {"type": "Feature", "properties": {"NUTS_ID": "DE94F", "LEVL_CODE": 3, "CNTR_CODE": "DE", "NAME_LATN": "Vechta", "NUTS_NAME": "Vechta", "MOUNT_TYPE": null, "URBN_TYPE": 2, "COAST_TYPE": null}, "geometry": {"type": "Point", "coordinates": [8.22305153700006, 52.660209664000035]}}, {"type": "Feature", "properties": {"NUTS_ID": "DE94G", "LEVL_CODE": 3, "CNTR_CODE": "DE", "NAME_LATN": "Wesermarsch", "NUTS_NAME": "Wesermarsch", "MOUNT_TYPE": null, "URBN_TYPE": 2, "COAST_TYPE": 1}, "geometry": {"type": "Point", "coordinates": [8.390144243000066, 53.35574927700003]}}, {"type": "Feature", "properties": {"NUTS_ID": "DE94H", "LEVL_CODE": 3, "CNTR_CODE": "DE", "NAME_LATN": "Wittmund", "NUTS_NAME": "Wittmund", "MOUNT_TYPE": null, "URBN_TYPE": 3, "COAST_TYPE": 1}, "geometry": {"type": "Point", "coordinates": [7.710404078000067, 53.56463462700003]}}, {"type": "Feature", "properties": {"NUTS_ID": "DEA11", "LEVL_CODE": 3, "CNTR_CODE": "DE", "NAME_LATN": "Düsseldorf, Kreisfreie Stadt", "NUTS_NAME": "Düsseldorf, Kreisfreie Stadt", "MOUNT_TYPE": null, "URBN_TYPE": 1, "COAST_TYPE": null}, "geometry": {"type": "Point", "coordinates": [6.810067835000041, 51.23546839000005]}}, {"type": "Feature", "properties": {"NUTS_ID": "DEA12", "LEVL_CODE": 3, "CNTR_CODE": "DE", "NAME_LATN": "Duisburg, Kreisfreie Stadt", "NUTS_NAME": "Duisburg, Kreisfreie Stadt", "MOUNT_TYPE": null, "URBN_TYPE": 1, "COAST_TYPE": null}, "geometry": {"type": "Point", "coordinates": [6.734673779000047, 51.43962946900007]}}, {"type": "Feature", "properties": {"NUTS_ID": "DEA13", "LEVL_CODE": 3, "CNTR_CODE": "DE", "NAME_LATN": "Essen, Kreisfreie Stadt", "NUTS_NAME": "Essen, Kreisfreie Stadt", "MOUNT_TYPE": null, "URBN_TYPE": 1, "COAST_TYPE": null}, "geometry": {"type": "Point", "coordinates": [7.017106517000059, 51.43385118000003]}}, {"type": "Feature", "properties": {"NUTS_ID": "DEA14", "LEVL_CODE": 3, "CNTR_CODE": "DE", "NAME_LATN": "Krefeld, Kreisfreie Stadt", "NUTS_NAME": "Krefeld, Kreisfreie Stadt", "MOUNT_TYPE": null, "URBN_TYPE": 1, "COAST_TYPE": null}, "geometry": {"type": "Point", "coordinates": [6.579680663000033, 51.34522981300006]}}, {"type": "Feature", "properties": {"NUTS_ID": "DEA15", "LEVL_CODE": 3, "CNTR_CODE": "DE", "NAME_LATN": "Mönchengladbach, Kreisfreie Stadt", "NUTS_NAME": "Mönchengladbach, Kreisfreie Stadt", "MOUNT_TYPE": null, "URBN_TYPE": 1, "COAST_TYPE": null}, "geometry": {"type": "Point", "coordinates": [6.412018135000039, 51.16719838000006]}}, {"type": "Feature", "properties": {"NUTS_ID": "DEA16", "LEVL_CODE": 3, "CNTR_CODE": "DE", "NAME_LATN": "Mülheim an der Ruhr, Kreisfreie Stadt", "NUTS_NAME": "Mülheim an der Ruhr, Kreisfreie Stadt", "MOUNT_TYPE": null, "URBN_TYPE": 1, "COAST_TYPE": null}, "geometry": {"type": "Point", "coordinates": [6.878470567000022, 51.41376847600003]}}, {"type": "Feature", "properties": {"NUTS_ID": "DEA17", "LEVL_CODE": 3, "CNTR_CODE": "DE", "NAME_LATN": "Oberhausen, Kreisfreie Stadt", "NUTS_NAME": "Oberhausen, Kreisfreie Stadt", "MOUNT_TYPE": null, "URBN_TYPE": 1, "COAST_TYPE": null}, "geometry": {"type": "Point", "coordinates": [6.853877500000067, 51.51381748800003]}}, {"type": "Feature", "properties": {"NUTS_ID": "DEA18", "LEVL_CODE": 3, "CNTR_CODE": "DE", "NAME_LATN": "Remscheid, Kreisfreie Stadt", "NUTS_NAME": "Remscheid, Kreisfreie Stadt", "MOUNT_TYPE": null, "URBN_TYPE": 1, "COAST_TYPE": null}, "geometry": {"type": "Point", "coordinates": [7.224032696000052, 51.18269992900008]}}, {"type": "Feature", "properties": {"NUTS_ID": "DEA19", "LEVL_CODE": 3, "CNTR_CODE": "DE", "NAME_LATN": "Solingen, Kreisfreie Stadt", "NUTS_NAME": "Solingen, Kreisfreie Stadt", "MOUNT_TYPE": null, "URBN_TYPE": 1, "COAST_TYPE": null}, "geometry": {"type": "Point", "coordinates": [7.062522250000029, 51.169973861000074]}}, {"type": "Feature", "properties": {"NUTS_ID": "DEA1A", "LEVL_CODE": 3, "CNTR_CODE": "DE", "NAME_LATN": "Wuppertal, Kreisfreie Stadt", "NUTS_NAME": "Wuppertal, Kreisfreie Stadt", "MOUNT_TYPE": null, "URBN_TYPE": 1, "COAST_TYPE": null}, "geometry": {"type": "Point", "coordinates": [7.168915700000071, 51.25065773600005]}}, {"type": "Feature", "properties": {"NUTS_ID": "DEA1B", "LEVL_CODE": 3, "CNTR_CODE": "DE", "NAME_LATN": "Kleve", "NUTS_NAME": "Kleve", "MOUNT_TYPE": null, "URBN_TYPE": 2, "COAST_TYPE": null}, "geometry": {"type": "Point", "coordinates": [6.239801, 51.61677330300006]}}, {"type": "Feature", "properties": {"NUTS_ID": "DEA1C", "LEVL_CODE": 3, "CNTR_CODE": "DE", "NAME_LATN": "Mettmann", "NUTS_NAME": "Mettmann", "MOUNT_TYPE": null, "URBN_TYPE": 1, "COAST_TYPE": null}, "geometry": {"type": "Point", "coordinates": [6.969024101000059, 51.25708328600007]}}, {"type": "Feature", "properties": {"NUTS_ID": "DEA1D", "LEVL_CODE": 3, "CNTR_CODE": "DE", "NAME_LATN": "Rhein-Kreis Neuss", "NUTS_NAME": "Rhein-Kreis Neuss", "MOUNT_TYPE": null, "URBN_TYPE": 1, "COAST_TYPE": null}, "geometry": {"type": "Point", "coordinates": [6.649311536000027, 51.14356578700006]}}, {"type": "Feature", "properties": {"NUTS_ID": "DEA1E", "LEVL_CODE": 3, "CNTR_CODE": "DE", "NAME_LATN": "Viersen", "NUTS_NAME": "Viersen", "MOUNT_TYPE": null, "URBN_TYPE": 1, "COAST_TYPE": null}, "geometry": {"type": "Point", "coordinates": [6.326142335000043, 51.28280915600004]}}, {"type": "Feature", "properties": {"NUTS_ID": "DEA1F", "LEVL_CODE": 3, "CNTR_CODE": "DE", "NAME_LATN": "Wesel", "NUTS_NAME": "Wesel", "MOUNT_TYPE": null, "URBN_TYPE": 1, "COAST_TYPE": null}, "geometry": {"type": "Point", "coordinates": [6.618366582000021, 51.62704016300006]}}, {"type": "Feature", "properties": {"NUTS_ID": "DEA22", "LEVL_CODE": 3, "CNTR_CODE": "DE", "NAME_LATN": "Bonn, Kreisfreie Stadt", "NUTS_NAME": "Bonn, Kreisfreie Stadt", "MOUNT_TYPE": null, "URBN_TYPE": 1, "COAST_TYPE": null}, "geometry": {"type": "Point", "coordinates": [7.109863619000066, 50.70578942600008]}}, {"type": "Feature", "properties": {"NUTS_ID": "DEA23", "LEVL_CODE": 3, "CNTR_CODE": "DE", "NAME_LATN": "Köln, Kreisfreie Stadt", "NUTS_NAME": "Köln, Kreisfreie Stadt", "MOUNT_TYPE": null, "URBN_TYPE": 1, "COAST_TYPE": null}, "geometry": {"type": "Point", "coordinates": [6.973318758000062, 50.945622333000074]}}, {"type": "Feature", "properties": {"NUTS_ID": "DEA24", "LEVL_CODE": 3, "CNTR_CODE": "DE", "NAME_LATN": "Leverkusen, Kreisfreie Stadt", "NUTS_NAME": "Leverkusen, Kreisfreie Stadt", "MOUNT_TYPE": null, "URBN_TYPE": 1, "COAST_TYPE": null}, "geometry": {"type": "Point", "coordinates": [7.015410105000058, 51.05307996700003]}}, {"type": "Feature", "properties": {"NUTS_ID": "DEA26", "LEVL_CODE": 3, "CNTR_CODE": "DE", "NAME_LATN": "Düren", "NUTS_NAME": "Düren", "MOUNT_TYPE": null, "URBN_TYPE": 2, "COAST_TYPE": null}, "geometry": {"type": "Point", "coordinates": [6.44554611600006, 50.81796442400008]}}, {"type": "Feature", "properties": {"NUTS_ID": "DEA27", "LEVL_CODE": 3, "CNTR_CODE": "DE", "NAME_LATN": "Rhein-Erft-Kreis", "NUTS_NAME": "Rhein-Erft-Kreis", "MOUNT_TYPE": null, "URBN_TYPE": 1, "COAST_TYPE": null}, "geometry": {"type": "Point", "coordinates": [6.716403333000073, 50.90505135500007]}}, {"type": "Feature", "properties": {"NUTS_ID": "DEA28", "LEVL_CODE": 3, "CNTR_CODE": "DE", "NAME_LATN": "Euskirchen", "NUTS_NAME": "Euskirchen", "MOUNT_TYPE": null, "URBN_TYPE": 2, "COAST_TYPE": null}, "geometry": {"type": "Point", "coordinates": [6.644154206000053, 50.53647722200003]}}, {"type": "Feature", "properties": {"NUTS_ID": "DEA29", "LEVL_CODE": 3, "CNTR_CODE": "DE", "NAME_LATN": "Heinsberg", "NUTS_NAME": "Heinsberg", "MOUNT_TYPE": null, "URBN_TYPE": 2, "COAST_TYPE": null}, "geometry": {"type": "Point", "coordinates": [6.164075510000032, 51.04938150600003]}}, {"type": "Feature", "properties": {"NUTS_ID": "DEA2A", "LEVL_CODE": 3, "CNTR_CODE": "DE", "NAME_LATN": "Oberbergischer Kreis", "NUTS_NAME": "Oberbergischer Kreis", "MOUNT_TYPE": null, "URBN_TYPE": 2, "COAST_TYPE": null}, "geometry": {"type": "Point", "coordinates": [7.51662699000002, 51.012712219000036]}}, {"type": "Feature", "properties": {"NUTS_ID": "DEA2B", "LEVL_CODE": 3, "CNTR_CODE": "DE", "NAME_LATN": "Rheinisch-Bergischer Kreis", "NUTS_NAME": "Rheinisch-Bergischer Kreis", "MOUNT_TYPE": null, "URBN_TYPE": 1, "COAST_TYPE": null}, "geometry": {"type": "Point", "coordinates": [7.194845678000036, 51.02304536200006]}}, {"type": "Feature", "properties": {"NUTS_ID": "DEA2C", "LEVL_CODE": 3, "CNTR_CODE": "DE", "NAME_LATN": "Rhein-Sieg-Kreis", "NUTS_NAME": "Rhein-Sieg-Kreis", "MOUNT_TYPE": null, "URBN_TYPE": 1, "COAST_TYPE": null}, "geometry": {"type": "Point", "coordinates": [7.268257750000032, 50.77244927300006]}}, {"type": "Feature", "properties": {"NUTS_ID": "DEA2D", "LEVL_CODE": 3, "CNTR_CODE": "DE", "NAME_LATN": "Städteregion Aachen", "NUTS_NAME": "Städteregion Aachen", "MOUNT_TYPE": null, "URBN_TYPE": 1, "COAST_TYPE": null}, "geometry": {"type": "Point", "coordinates": [6.216929021000055, 50.732512807000035]}}, {"type": "Feature", "properties": {"NUTS_ID": "DEA31", "LEVL_CODE": 3, "CNTR_CODE": "DE", "NAME_LATN": "Bottrop, Kreisfreie Stadt", "NUTS_NAME": "Bottrop, Kreisfreie Stadt", "MOUNT_TYPE": null, "URBN_TYPE": 1, "COAST_TYPE": null}, "geometry": {"type": "Point", "coordinates": [6.957748375000051, 51.525954066000054]}}, {"type": "Feature", "properties": {"NUTS_ID": "DEA32", "LEVL_CODE": 3, "CNTR_CODE": "DE", "NAME_LATN": "Gelsenkirchen, Kreisfreie Stadt", "NUTS_NAME": "Gelsenkirchen, Kreisfreie Stadt", "MOUNT_TYPE": null, "URBN_TYPE": 1, "COAST_TYPE": null}, "geometry": {"type": "Point", "coordinates": [7.071169882000049, 51.55393933400006]}}, {"type": "Feature", "properties": {"NUTS_ID": "DEA33", "LEVL_CODE": 3, "CNTR_CODE": "DE", "NAME_LATN": "Münster, Kreisfreie Stadt", "NUTS_NAME": "Münster, Kreisfreie Stadt", "MOUNT_TYPE": null, "URBN_TYPE": 1, "COAST_TYPE": null}, "geometry": {"type": "Point", "coordinates": [7.623637335000069, 51.95431634400006]}}, {"type": "Feature", "properties": {"NUTS_ID": "DEA34", "LEVL_CODE": 3, "CNTR_CODE": "DE", "NAME_LATN": "Borken", "NUTS_NAME": "Borken", "MOUNT_TYPE": null, "URBN_TYPE": 2, "COAST_TYPE": null}, "geometry": {"type": "Point", "coordinates": [6.830610750000062, 51.84916394900006]}}, {"type": "Feature", "properties": {"NUTS_ID": "DEA35", "LEVL_CODE": 3, "CNTR_CODE": "DE", "NAME_LATN": "Coesfeld", "NUTS_NAME": "Coesfeld", "MOUNT_TYPE": null, "URBN_TYPE": 2, "COAST_TYPE": null}, "geometry": {"type": "Point", "coordinates": [7.366007333000027, 51.86685364300007]}}, {"type": "Feature", "properties": {"NUTS_ID": "DEA36", "LEVL_CODE": 3, "CNTR_CODE": "DE", "NAME_LATN": "Recklinghausen", "NUTS_NAME": "Recklinghausen", "MOUNT_TYPE": null, "URBN_TYPE": 1, "COAST_TYPE": null}, "geometry": {"type": "Point", "coordinates": [7.179764, 51.68681859800006]}}, {"type": "Feature", "properties": {"NUTS_ID": "DEA37", "LEVL_CODE": 3, "CNTR_CODE": "DE", "NAME_LATN": "Steinfurt", "NUTS_NAME": "Steinfurt", "MOUNT_TYPE": null, "URBN_TYPE": 2, "COAST_TYPE": null}, "geometry": {"type": "Point", "coordinates": [7.579479082000034, 52.21155053500007]}}, {"type": "Feature", "properties": {"NUTS_ID": "DEA38", "LEVL_CODE": 3, "CNTR_CODE": "DE", "NAME_LATN": "Warendorf", "NUTS_NAME": "Warendorf", "MOUNT_TYPE": null, "URBN_TYPE": 2, "COAST_TYPE": null}, "geometry": {"type": "Point", "coordinates": [7.958310615000073, 51.87022708400008]}}, {"type": "Feature", "properties": {"NUTS_ID": "DEA41", "LEVL_CODE": 3, "CNTR_CODE": "DE", "NAME_LATN": "Bielefeld, Kreisfreie Stadt", "NUTS_NAME": "Bielefeld, Kreisfreie Stadt", "MOUNT_TYPE": null, "URBN_TYPE": 1, "COAST_TYPE": null}, "geometry": {"type": "Point", "coordinates": [8.540790672000071, 52.01097942000007]}}, {"type": "Feature", "properties": {"NUTS_ID": "DEA42", "LEVL_CODE": 3, "CNTR_CODE": "DE", "NAME_LATN": "Gütersloh", "NUTS_NAME": "Gütersloh", "MOUNT_TYPE": null, "URBN_TYPE": 2, "COAST_TYPE": null}, "geometry": {"type": "Point", "coordinates": [8.411932500000034, 51.85530908900006]}}, {"type": "Feature", "properties": {"NUTS_ID": "DEA43", "LEVL_CODE": 3, "CNTR_CODE": "DE", "NAME_LATN": "Herford", "NUTS_NAME": "Herford", "MOUNT_TYPE": null, "URBN_TYPE": 1, "COAST_TYPE": null}, "geometry": {"type": "Point", "coordinates": [8.643962398000042, 52.16760914400004]}}, {"type": "Feature", "properties": {"NUTS_ID": "DEA44", "LEVL_CODE": 3, "CNTR_CODE": "DE", "NAME_LATN": "Höxter", "NUTS_NAME": "Höxter", "MOUNT_TYPE": null, "URBN_TYPE": 3, "COAST_TYPE": null}, "geometry": {"type": "Point", "coordinates": [9.178104606000034, 51.68493723600005]}}, {"type": "Feature", "properties": {"NUTS_ID": "DEA45", "LEVL_CODE": 3, "CNTR_CODE": "DE", "NAME_LATN": "Lippe", "NUTS_NAME": "Lippe", "MOUNT_TYPE": null, "URBN_TYPE": 2, "COAST_TYPE": null}, "geometry": {"type": "Point", "coordinates": [8.950849690000041, 51.981417143000044]}}, {"type": "Feature", "properties": {"NUTS_ID": "DEA46", "LEVL_CODE": 3, "CNTR_CODE": "DE", "NAME_LATN": "Minden-Lübbecke", "NUTS_NAME": "Minden-Lübbecke", "MOUNT_TYPE": null, "URBN_TYPE": 2, "COAST_TYPE": null}, "geometry": {"type": "Point", "coordinates": [8.716961, 52.32101644800008]}}, {"type": "Feature", "properties": {"NUTS_ID": "DEA47", "LEVL_CODE": 3, "CNTR_CODE": "DE", "NAME_LATN": "Paderborn", "NUTS_NAME": "Paderborn", "MOUNT_TYPE": null, "URBN_TYPE": 2, "COAST_TYPE": null}, "geometry": {"type": "Point", "coordinates": [8.719660371000032, 51.664169092000066]}}, {"type": "Feature", "properties": {"NUTS_ID": "DEA51", "LEVL_CODE": 3, "CNTR_CODE": "DE", "NAME_LATN": "Bochum, Kreisfreie Stadt", "NUTS_NAME": "Bochum, Kreisfreie Stadt", "MOUNT_TYPE": null, "URBN_TYPE": 1, "COAST_TYPE": null}, "geometry": {"type": "Point", "coordinates": [7.22496747100007, 51.46990594200008]}}, {"type": "Feature", "properties": {"NUTS_ID": "DEA52", "LEVL_CODE": 3, "CNTR_CODE": "DE", "NAME_LATN": "Dortmund, Kreisfreie Stadt", "NUTS_NAME": "Dortmund, Kreisfreie Stadt", "MOUNT_TYPE": null, "URBN_TYPE": 1, "COAST_TYPE": null}, "geometry": {"type": "Point", "coordinates": [7.474887666000029, 51.516078754000034]}}, {"type": "Feature", "properties": {"NUTS_ID": "DEA53", "LEVL_CODE": 3, "CNTR_CODE": "DE", "NAME_LATN": "Hagen, Kreisfreie Stadt", "NUTS_NAME": "Hagen, Kreisfreie Stadt", "MOUNT_TYPE": null, "URBN_TYPE": 1, "COAST_TYPE": null}, "geometry": {"type": "Point", "coordinates": [7.497522881000066, 51.348044978000075]}}, {"type": "Feature", "properties": {"NUTS_ID": "DEA54", "LEVL_CODE": 3, "CNTR_CODE": "DE", "NAME_LATN": "Hamm, Kreisfreie Stadt", "NUTS_NAME": "Hamm, Kreisfreie Stadt", "MOUNT_TYPE": null, "URBN_TYPE": 1, "COAST_TYPE": null}, "geometry": {"type": "Point", "coordinates": [7.823566538000023, 51.66521736400006]}}, {"type": "Feature", "properties": {"NUTS_ID": "DEA55", "LEVL_CODE": 3, "CNTR_CODE": "DE", "NAME_LATN": "Herne, Kreisfreie Stadt", "NUTS_NAME": "Herne, Kreisfreie Stadt", "MOUNT_TYPE": null, "URBN_TYPE": 1, "COAST_TYPE": null}, "geometry": {"type": "Point", "coordinates": [7.208550738000042, 51.537529558000074]}}, {"type": "Feature", "properties": {"NUTS_ID": "DEA56", "LEVL_CODE": 3, "CNTR_CODE": "DE", "NAME_LATN": "Ennepe-Ruhr-Kreis", "NUTS_NAME": "Ennepe-Ruhr-Kreis", "MOUNT_TYPE": null, "URBN_TYPE": 1, "COAST_TYPE": null}, "geometry": {"type": "Point", "coordinates": [7.324046741000075, 51.34682875900006]}}, {"type": "Feature", "properties": {"NUTS_ID": "DEA57", "LEVL_CODE": 3, "CNTR_CODE": "DE", "NAME_LATN": "Hochsauerlandkreis", "NUTS_NAME": "Hochsauerlandkreis", "MOUNT_TYPE": 1, "URBN_TYPE": 2, "COAST_TYPE": null}, "geometry": {"type": "Point", "coordinates": [8.417291, 51.27113961400005]}}, {"type": "Feature", "properties": {"NUTS_ID": "DEA58", "LEVL_CODE": 3, "CNTR_CODE": "DE", "NAME_LATN": "Märkischer Kreis", "NUTS_NAME": "Märkischer Kreis", "MOUNT_TYPE": null, "URBN_TYPE": 1, "COAST_TYPE": null}, "geometry": {"type": "Point", "coordinates": [7.712954138000043, 51.262601603000064]}}, {"type": "Feature", "properties": {"NUTS_ID": "DEA59", "LEVL_CODE": 3, "CNTR_CODE": "DE", "NAME_LATN": "Olpe", "NUTS_NAME": "Olpe", "MOUNT_TYPE": 1, "URBN_TYPE": 2, "COAST_TYPE": null}, "geometry": {"type": "Point", "coordinates": [7.976469546000033, 51.08618614300008]}}, {"type": "Feature", "properties": {"NUTS_ID": "DEA5A", "LEVL_CODE": 3, "CNTR_CODE": "DE", "NAME_LATN": "Siegen-Wittgenstein", "NUTS_NAME": "Siegen-Wittgenstein", "MOUNT_TYPE": 1, "URBN_TYPE": 2, "COAST_TYPE": null}, "geometry": {"type": "Point", "coordinates": [8.195112184000038, 50.937720451000075]}}, {"type": "Feature", "properties": {"NUTS_ID": "DEA5B", "LEVL_CODE": 3, "CNTR_CODE": "DE", "NAME_LATN": "Soest", "NUTS_NAME": "Soest", "MOUNT_TYPE": null, "URBN_TYPE": 2, "COAST_TYPE": null}, "geometry": {"type": "Point", "coordinates": [8.21744112500005, 51.564438523000035]}}, {"type": "Feature", "properties": {"NUTS_ID": "DEA5C", "LEVL_CODE": 3, "CNTR_CODE": "DE", "NAME_LATN": "Unna", "NUTS_NAME": "Unna", "MOUNT_TYPE": null, "URBN_TYPE": 1, "COAST_TYPE": null}, "geometry": {"type": "Point", "coordinates": [7.739244, 51.546029813000075]}}, {"type": "Feature", "properties": {"NUTS_ID": "DEB11", "LEVL_CODE": 3, "CNTR_CODE": "DE", "NAME_LATN": "Koblenz, Kreisfreie Stadt", "NUTS_NAME": "Koblenz, Kreisfreie Stadt", "MOUNT_TYPE": null, "URBN_TYPE": 1, "COAST_TYPE": null}, "geometry": {"type": "Point", "coordinates": [7.579542725000067, 50.348536102000025]}}, {"type": "Feature", "properties": {"NUTS_ID": "DEB12", "LEVL_CODE": 3, "CNTR_CODE": "DE", "NAME_LATN": "Ahrweiler", "NUTS_NAME": "Ahrweiler", "MOUNT_TYPE": 1, "URBN_TYPE": 2, "COAST_TYPE": null}, "geometry": {"type": "Point", "coordinates": [7.044982334000053, 50.467580147000035]}}, {"type": "Feature", "properties": {"NUTS_ID": "DEB13", "LEVL_CODE": 3, "CNTR_CODE": "DE", "NAME_LATN": "Altenkirchen (Westerwald)", "NUTS_NAME": "Altenkirchen (Westerwald)", "MOUNT_TYPE": null, "URBN_TYPE": 3, "COAST_TYPE": null}, "geometry": {"type": "Point", "coordinates": [7.741098750000049, 50.78973149600006]}}, {"type": "Feature", "properties": {"NUTS_ID": "DEB14", "LEVL_CODE": 3, "CNTR_CODE": "DE", "NAME_LATN": "Bad Kreuznach", "NUTS_NAME": "Bad Kreuznach", "MOUNT_TYPE": null, "URBN_TYPE": 2, "COAST_TYPE": null}, "geometry": {"type": "Point", "coordinates": [7.686664152000048, 49.82482383000007]}}, {"type": "Feature", "properties": {"NUTS_ID": "DEB15", "LEVL_CODE": 3, "CNTR_CODE": "DE", "NAME_LATN": "Birkenfeld", "NUTS_NAME": "Birkenfeld", "MOUNT_TYPE": 1, "URBN_TYPE": 3, "COAST_TYPE": null}, "geometry": {"type": "Point", "coordinates": [7.277520324000022, 49.71261580200007]}}, {"type": "Feature", "properties": {"NUTS_ID": "DEB17", "LEVL_CODE": 3, "CNTR_CODE": "DE", "NAME_LATN": "Mayen-Koblenz", "NUTS_NAME": "Mayen-Koblenz", "MOUNT_TYPE": null, "URBN_TYPE": 1, "COAST_TYPE": null}, "geometry": {"type": "Point", "coordinates": [7.332219323000061, 50.331617175000076]}}, {"type": "Feature", "properties": {"NUTS_ID": "NO081", "LEVL_CODE": 3, "CNTR_CODE": "NO", "NAME_LATN": "Oslo", "NUTS_NAME": "Oslo", "MOUNT_TYPE": 1, "URBN_TYPE": null, "COAST_TYPE": null}, "geometry": {"type": "Point", "coordinates": [10.739287723000075, 59.98177108500005]}}, {"type": "Feature", "properties": {"NUTS_ID": "NO083", "LEVL_CODE": 3, "CNTR_CODE": "NO", "NAME_LATN": "Østfold", "NUTS_NAME": "Østfold", "MOUNT_TYPE": null, "URBN_TYPE": null, "COAST_TYPE": null}, "geometry": {"type": "Point", "coordinates": [11.299369626000043, 59.360821368000074]}}, {"type": "Feature", "properties": {"NUTS_ID": "NO084", "LEVL_CODE": 3, "CNTR_CODE": "NO", "NAME_LATN": "Akershus", "NUTS_NAME": "Akershus", "MOUNT_TYPE": null, "URBN_TYPE": null, "COAST_TYPE": null}, "geometry": {"type": "Point", "coordinates": [11.164424827000062, 60.03678520200003]}}, {"type": "Feature", "properties": {"NUTS_ID": "NO085", "LEVL_CODE": 3, "CNTR_CODE": "NO", "NAME_LATN": "Buskerud", "NUTS_NAME": "Buskerud", "MOUNT_TYPE": 1, "URBN_TYPE": null, "COAST_TYPE": null}, "geometry": {"type": "Point", "coordinates": [9.02019, 60.410416516000055]}}, {"type": "Feature", "properties": {"NUTS_ID": "NO092", "LEVL_CODE": 3, "CNTR_CODE": "NO", "NAME_LATN": "Agder", "NUTS_NAME": "Agder", "MOUNT_TYPE": 1, "URBN_TYPE": null, "COAST_TYPE": null}, "geometry": {"type": "Point", "coordinates": [7.618275777000065, 58.702516040000035]}}, {"type": "Feature", "properties": {"NUTS_ID": "NO093", "LEVL_CODE": 3, "CNTR_CODE": "NO", "NAME_LATN": "Vestfold", "NUTS_NAME": "Vestfold", "MOUNT_TYPE": null, "URBN_TYPE": null, "COAST_TYPE": null}, "geometry": {"type": "Point", "coordinates": [10.11427922300004, 59.32324880200008]}}, {"type": "Feature", "properties": {"NUTS_ID": "NO094", "LEVL_CODE": 3, "CNTR_CODE": "NO", "NAME_LATN": "Telemark", "NUTS_NAME": "Telemark", "MOUNT_TYPE": 1, "URBN_TYPE": null, "COAST_TYPE": null}, "geometry": {"type": "Point", "coordinates": [8.517454153000074, 59.51972034600004]}}, {"type": "Feature", "properties": {"NUTS_ID": "NO0A1", "LEVL_CODE": 3, "CNTR_CODE": "NO", "NAME_LATN": "Rogaland", "NUTS_NAME": "Rogaland", "MOUNT_TYPE": 1, "URBN_TYPE": null, "COAST_TYPE": null}, "geometry": {"type": "Point", "coordinates": [6.218346, 58.58636764500005]}}, {"type": "Feature", "properties": {"NUTS_ID": "NO0A2", "LEVL_CODE": 3, "CNTR_CODE": "NO", "NAME_LATN": "Vestland", "NUTS_NAME": "Vestland", "MOUNT_TYPE": 1, "URBN_TYPE": null, "COAST_TYPE": null}, "geometry": {"type": "Point", "coordinates": [6.543953445000056, 60.96606912200008]}}, {"type": "Feature", "properties": {"NUTS_ID": "NO0A3", "LEVL_CODE": 3, "CNTR_CODE": "NO", "NAME_LATN": "Møre og Romsdal", "NUTS_NAME": "Møre og Romsdal", "MOUNT_TYPE": 1, "URBN_TYPE": null, "COAST_TYPE": null}, "geometry": {"type": "Point", "coordinates": [8.374604500000032, 62.559173575000045]}}, {"type": "Feature", "properties": {"NUTS_ID": "NO0B1", "LEVL_CODE": 3, "CNTR_CODE": "NO", "NAME_LATN": "Jan Mayen", "NUTS_NAME": "Jan Mayen", "MOUNT_TYPE": null, "URBN_TYPE": null, "COAST_TYPE": null}, "geometry": {"type": "Point", "coordinates": [-8.215925374999927, 71.06189814200008]}}, {"type": "Feature", "properties": {"NUTS_ID": "NO0B2", "LEVL_CODE": 3, "CNTR_CODE": "NO", "NAME_LATN": "Svalbard", "NUTS_NAME": "Svalbard", "MOUNT_TYPE": null, "URBN_TYPE": null, "COAST_TYPE": null}, "geometry": {"type": "Point", "coordinates": [13.360983875000045, 78.83024307600004]}}, {"type": "Feature", "properties": {"NUTS_ID": "AL011", "LEVL_CODE": 3, "CNTR_CODE": "AL", "NAME_LATN": "Dibër", "NUTS_NAME": "Dibër", "MOUNT_TYPE": null, "URBN_TYPE": null, "COAST_TYPE": null}, "geometry": {"type": "Point", "coordinates": [20.239656060000073, 41.606328303000055]}}, {"type": "Feature", "properties": {"NUTS_ID": "AL012", "LEVL_CODE": 3, "CNTR_CODE": "AL", "NAME_LATN": "Durrës", "NUTS_NAME": "Durrës", "MOUNT_TYPE": null, "URBN_TYPE": null, "COAST_TYPE": null}, "geometry": {"type": "Point", "coordinates": [19.64986925000005, 41.51493033500003]}}, {"type": "Feature", "properties": {"NUTS_ID": "AL013", "LEVL_CODE": 3, "CNTR_CODE": "AL", "NAME_LATN": "Kukës", "NUTS_NAME": "Kukës", "MOUNT_TYPE": null, "URBN_TYPE": null, "COAST_TYPE": null}, "geometry": {"type": "Point", "coordinates": [20.419498125000075, 42.06604296800003]}}, {"type": "Feature", "properties": {"NUTS_ID": "AL014", "LEVL_CODE": 3, "CNTR_CODE": "AL", "NAME_LATN": "Lezhë", "NUTS_NAME": "Lezhë", "MOUNT_TYPE": null, "URBN_TYPE": null, "COAST_TYPE": null}, "geometry": {"type": "Point", "coordinates": [19.847177884000075, 41.799936253000055]}}, {"type": "Feature", "properties": {"NUTS_ID": "AL015", "LEVL_CODE": 3, "CNTR_CODE": "AL", "NAME_LATN": "Shkodër", "NUTS_NAME": "Shkodër", "MOUNT_TYPE": null, "URBN_TYPE": null, "COAST_TYPE": null}, "geometry": {"type": "Point", "coordinates": [19.717846029000043, 42.17553801400004]}}, {"type": "Feature", "properties": {"NUTS_ID": "AL021", "LEVL_CODE": 3, "CNTR_CODE": "AL", "NAME_LATN": "Elbasan", "NUTS_NAME": "Elbasan", "MOUNT_TYPE": null, "URBN_TYPE": null, "COAST_TYPE": null}, "geometry": {"type": "Point", "coordinates": [20.193460682000023, 41.05199904300008]}}, {"type": "Feature", "properties": {"NUTS_ID": "AL022", "LEVL_CODE": 3, "CNTR_CODE": "AL", "NAME_LATN": "Tiranë", "NUTS_NAME": "Tiranë", "MOUNT_TYPE": null, "URBN_TYPE": null, "COAST_TYPE": null}, "geometry": {"type": "Point", "coordinates": [19.793300480000028, 41.26963899100008]}}, {"type": "Feature", "properties": {"NUTS_ID": "AL031", "LEVL_CODE": 3, "CNTR_CODE": "AL", "NAME_LATN": "Berat", "NUTS_NAME": "Berat", "MOUNT_TYPE": null, "URBN_TYPE": null, "COAST_TYPE": null}, "geometry": {"type": "Point", "coordinates": [20.097065244000078, 40.63054845100004]}}, {"type": "Feature", "properties": {"NUTS_ID": "AL032", "LEVL_CODE": 3, "CNTR_CODE": "AL", "NAME_LATN": "Fier", "NUTS_NAME": "Fier", "MOUNT_TYPE": null, "URBN_TYPE": null, "COAST_TYPE": null}, "geometry": {"type": "Point", "coordinates": [19.622163427000032, 40.77162739500005]}}, {"type": "Feature", "properties": {"NUTS_ID": "AL033", "LEVL_CODE": 3, "CNTR_CODE": "AL", "NAME_LATN": "Gjirokastër", "NUTS_NAME": "Gjirokastër", "MOUNT_TYPE": null, "URBN_TYPE": null, "COAST_TYPE": null}, "geometry": {"type": "Point", "coordinates": [20.172035005000055, 40.21840729000007]}}, {"type": "Feature", "properties": {"NUTS_ID": "AL034", "LEVL_CODE": 3, "CNTR_CODE": "AL", "NAME_LATN": "Korcë", "NUTS_NAME": "Korcë", "MOUNT_TYPE": null, "URBN_TYPE": null, "COAST_TYPE": null}, "geometry": {"type": "Point", "coordinates": [20.67091550600003, 40.62963253700008]}}, {"type": "Feature", "properties": {"NUTS_ID": "AL035", "LEVL_CODE": 3, "CNTR_CODE": "AL", "NAME_LATN": "Vlorë", "NUTS_NAME": "Vlorë", "MOUNT_TYPE": null, "URBN_TYPE": null, "COAST_TYPE": null}, "geometry": {"type": "Point", "coordinates": [19.802232911000033, 40.15735946400008]}}, {"type": "Feature", "properties": {"NUTS_ID": "AT111", "LEVL_CODE": 3, "CNTR_CODE": "AT", "NAME_LATN": "Mittelburgenland", "NUTS_NAME": "Mittelburgenland", "MOUNT_TYPE": null, "URBN_TYPE": 3, "COAST_TYPE": null}, "geometry": {"type": "Point", "coordinates": [16.483147744000064, 47.51285702400003]}}, {"type": "Feature", "properties": {"NUTS_ID": "AT112", "LEVL_CODE": 3, "CNTR_CODE": "AT", "NAME_LATN": "Nordburgenland", "NUTS_NAME": "Nordburgenland", "MOUNT_TYPE": null, "URBN_TYPE": 3, "COAST_TYPE": null}, "geometry": {"type": "Point", "coordinates": [16.75487610500005, 47.85360464300004]}}, {"type": "Feature", "properties": {"NUTS_ID": "AT113", "LEVL_CODE": 3, "CNTR_CODE": "AT", "NAME_LATN": "Südburgenland", "NUTS_NAME": "Südburgenland", "MOUNT_TYPE": null, "URBN_TYPE": 3, "COAST_TYPE": null}, "geometry": {"type": "Point", "coordinates": [16.255385802000035, 47.17545735700003]}}, {"type": "Feature", "properties": {"NUTS_ID": "AT121", "LEVL_CODE": 3, "CNTR_CODE": "AT", "NAME_LATN": "Mostviertel-Eisenwurzen", "NUTS_NAME": "Mostviertel-Eisenwurzen", "MOUNT_TYPE": 1, "URBN_TYPE": 3, "COAST_TYPE": null}, "geometry": {"type": "Point", "coordinates": [14.998163558000044, 48.053293059000055]}}, {"type": "Feature", "properties": {"NUTS_ID": "AT122", "LEVL_CODE": 3, "CNTR_CODE": "AT", "NAME_LATN": "Niederösterreich-Süd", "NUTS_NAME": "Niederösterreich-Süd", "MOUNT_TYPE": 1, "URBN_TYPE": 2, "COAST_TYPE": null}, "geometry": {"type": "Point", "coordinates": [15.902195171000074, 47.79792012100006]}}, {"type": "Feature", "properties": {"NUTS_ID": "AT123", "LEVL_CODE": 3, "CNTR_CODE": "AT", "NAME_LATN": "Sankt Pölten", "NUTS_NAME": "Sankt Pölten", "MOUNT_TYPE": 1, "URBN_TYPE": 3, "COAST_TYPE": null}, "geometry": {"type": "Point", "coordinates": [15.638564250000059, 48.206398431000025]}}, {"type": "Feature", "properties": {"NUTS_ID": "AT124", "LEVL_CODE": 3, "CNTR_CODE": "AT", "NAME_LATN": "Waldviertel", "NUTS_NAME": "Waldviertel", "MOUNT_TYPE": null, "URBN_TYPE": 3, "COAST_TYPE": null}, "geometry": {"type": "Point", "coordinates": [15.317181935000065, 48.64297122600004]}}, {"type": "Feature", "properties": {"NUTS_ID": "AT125", "LEVL_CODE": 3, "CNTR_CODE": "AT", "NAME_LATN": "Weinviertel", "NUTS_NAME": "Weinviertel", "MOUNT_TYPE": null, "URBN_TYPE": 3, "COAST_TYPE": null}, "geometry": {"type": "Point", "coordinates": [16.648841375000075, 48.63049000600006]}}, {"type": "Feature", "properties": {"NUTS_ID": "AT126", "LEVL_CODE": 3, "CNTR_CODE": "AT", "NAME_LATN": "Wiener Umland/Nordteil", "NUTS_NAME": "Wiener Umland/Nordteil", "MOUNT_TYPE": null, "URBN_TYPE": 2, "COAST_TYPE": null}, "geometry": {"type": "Point", "coordinates": [16.661083, 48.30069060800008]}}, {"type": "Feature", "properties": {"NUTS_ID": "AT127", "LEVL_CODE": 3, "CNTR_CODE": "AT", "NAME_LATN": "Wiener Umland/Südteil", "NUTS_NAME": "Wiener Umland/Südteil", "MOUNT_TYPE": null, "URBN_TYPE": 2, "COAST_TYPE": null}, "geometry": {"type": "Point", "coordinates": [16.451427672000023, 48.046697867000034]}}, {"type": "Feature", "properties": {"NUTS_ID": "AT130", "LEVL_CODE": 3, "CNTR_CODE": "AT", "NAME_LATN": "Wien", "NUTS_NAME": "Wien", "MOUNT_TYPE": null, "URBN_TYPE": 1, "COAST_TYPE": null}, "geometry": {"type": "Point", "coordinates": [16.377864147000025, 48.20857328400007]}}, {"type": "Feature", "properties": {"NUTS_ID": "AT211", "LEVL_CODE": 3, "CNTR_CODE": "AT", "NAME_LATN": "Klagenfurt-Villach", "NUTS_NAME": "Klagenfurt-Villach", "MOUNT_TYPE": 1, "URBN_TYPE": 2, "COAST_TYPE": null}, "geometry": {"type": "Point", "coordinates": [14.25830862500004, 46.569791886000075]}}, {"type": "Feature", "properties": {"NUTS_ID": "AT212", "LEVL_CODE": 3, "CNTR_CODE": "AT", "NAME_LATN": "Oberkärnten", "NUTS_NAME": "Oberkärnten", "MOUNT_TYPE": 1, "URBN_TYPE": 3, "COAST_TYPE": null}, "geometry": {"type": "Point", "coordinates": [13.341388345000041, 46.83478714700004]}}, {"type": "Feature", "properties": {"NUTS_ID": "AT213", "LEVL_CODE": 3, "CNTR_CODE": "AT", "NAME_LATN": "Unterkärnten", "NUTS_NAME": "Unterkärnten", "MOUNT_TYPE": 1, "URBN_TYPE": 3, "COAST_TYPE": null}, "geometry": {"type": "Point", "coordinates": [14.784285625000052, 46.76866899500004]}}, {"type": "Feature", "properties": {"NUTS_ID": "AT221", "LEVL_CODE": 3, "CNTR_CODE": "AT", "NAME_LATN": "Graz", "NUTS_NAME": "Graz", "MOUNT_TYPE": 1, "URBN_TYPE": 1, "COAST_TYPE": null}, "geometry": {"type": "Point", "coordinates": [15.389773753000043, 47.121596630000056]}}, {"type": "Feature", "properties": {"NUTS_ID": "AT222", "LEVL_CODE": 3, "CNTR_CODE": "AT", "NAME_LATN": "Liezen", "NUTS_NAME": "Liezen", "MOUNT_TYPE": 1, "URBN_TYPE": 3, "COAST_TYPE": null}, "geometry": {"type": "Point", "coordinates": [14.212985487000026, 47.52099040100006]}}, {"type": "Feature", "properties": {"NUTS_ID": "AT223", "LEVL_CODE": 3, "CNTR_CODE": "AT", "NAME_LATN": "Östliche Obersteiermark", "NUTS_NAME": "Östliche Obersteiermark", "MOUNT_TYPE": 1, "URBN_TYPE": 2, "COAST_TYPE": null}, "geometry": {"type": "Point", "coordinates": [15.22689108000003, 47.526222424000025]}}, {"type": "Feature", "properties": {"NUTS_ID": "AT224", "LEVL_CODE": 3, "CNTR_CODE": "AT", "NAME_LATN": "Oststeiermark", "NUTS_NAME": "Oststeiermark", "MOUNT_TYPE": 1, "URBN_TYPE": 3, "COAST_TYPE": null}, "geometry": {"type": "Point", "coordinates": [15.827846429000033, 47.16444484500005]}}, {"type": "Feature", "properties": {"NUTS_ID": "AT225", "LEVL_CODE": 3, "CNTR_CODE": "AT", "NAME_LATN": "West- und Südsteiermark", "NUTS_NAME": "West- und Südsteiermark", "MOUNT_TYPE": 1, "URBN_TYPE": 3, "COAST_TYPE": null}, "geometry": {"type": "Point", "coordinates": [15.299462750000032, 46.81529896200004]}}, {"type": "Feature", "properties": {"NUTS_ID": "AT226", "LEVL_CODE": 3, "CNTR_CODE": "AT", "NAME_LATN": "Westliche Obersteiermark", "NUTS_NAME": "Westliche Obersteiermark", "MOUNT_TYPE": 1, "URBN_TYPE": 3, "COAST_TYPE": null}, "geometry": {"type": "Point", "coordinates": [14.431565458000023, 47.18963499600005]}}, {"type": "Feature", "properties": {"NUTS_ID": "AT311", "LEVL_CODE": 3, "CNTR_CODE": "AT", "NAME_LATN": "Innviertel", "NUTS_NAME": "Innviertel", "MOUNT_TYPE": null, "URBN_TYPE": 3, "COAST_TYPE": null}, "geometry": {"type": "Point", "coordinates": [13.410389427000041, 48.24276850000007]}}, {"type": "Feature", "properties": {"NUTS_ID": "AT312", "LEVL_CODE": 3, "CNTR_CODE": "AT", "NAME_LATN": "Linz-Wels", "NUTS_NAME": "Linz-Wels", "MOUNT_TYPE": null, "URBN_TYPE": 2, "COAST_TYPE": null}, "geometry": {"type": "Point", "coordinates": [14.146111713000039, 48.242746245000035]}}, {"type": "Feature", "properties": {"NUTS_ID": "AT313", "LEVL_CODE": 3, "CNTR_CODE": "AT", "NAME_LATN": "Mühlviertel", "NUTS_NAME": "Mühlviertel", "MOUNT_TYPE": 1, "URBN_TYPE": 3, "COAST_TYPE": null}, "geometry": {"type": "Point", "coordinates": [14.674727500000074, 48.37204098700005]}}, {"type": "Feature", "properties": {"NUTS_ID": "AT314", "LEVL_CODE": 3, "CNTR_CODE": "AT", "NAME_LATN": "Steyr-Kirchdorf", "NUTS_NAME": "Steyr-Kirchdorf", "MOUNT_TYPE": 1, "URBN_TYPE": 3, "COAST_TYPE": null}, "geometry": {"type": "Point", "coordinates": [14.328634649000037, 47.86189550200004]}}, {"type": "Feature", "properties": {"NUTS_ID": "AT315", "LEVL_CODE": 3, "CNTR_CODE": "AT", "NAME_LATN": "Traunviertel", "NUTS_NAME": "Traunviertel", "MOUNT_TYPE": 1, "URBN_TYPE": 3, "COAST_TYPE": null}, "geometry": {"type": "Point", "coordinates": [13.659099595000043, 47.84908623300004]}}, {"type": "Feature", "properties": {"NUTS_ID": "AT321", "LEVL_CODE": 3, "CNTR_CODE": "AT", "NAME_LATN": "Lungau", "NUTS_NAME": "Lungau", "MOUNT_TYPE": 1, "URBN_TYPE": 3, "COAST_TYPE": null}, "geometry": {"type": "Point", "coordinates": [13.666350685000054, 47.14054881800007]}}, {"type": "Feature", "properties": {"NUTS_ID": "AT322", "LEVL_CODE": 3, "CNTR_CODE": "AT", "NAME_LATN": "Pinzgau-Pongau", "NUTS_NAME": "Pinzgau-Pongau", "MOUNT_TYPE": 1, "URBN_TYPE": 3, "COAST_TYPE": null}, "geometry": {"type": "Point", "coordinates": [12.898738058000049, 47.30148448700004]}}, {"type": "Feature", "properties": {"NUTS_ID": "AT323", "LEVL_CODE": 3, "CNTR_CODE": "AT", "NAME_LATN": "Salzburg und Umgebung", "NUTS_NAME": "Salzburg und Umgebung", "MOUNT_TYPE": 1, "URBN_TYPE": 2, "COAST_TYPE": null}, "geometry": {"type": "Point", "coordinates": [13.211819849000051, 47.75073231700003]}}, {"type": "Feature", "properties": {"NUTS_ID": "AT331", "LEVL_CODE": 3, "CNTR_CODE": "AT", "NAME_LATN": "Außerfern", "NUTS_NAME": "Außerfern", "MOUNT_TYPE": 1, "URBN_TYPE": 3, "COAST_TYPE": null}, "geometry": {"type": "Point", "coordinates": [10.582878750000077, 47.42129476100007]}}, {"type": "Feature", "properties": {"NUTS_ID": "AT332", "LEVL_CODE": 3, "CNTR_CODE": "AT", "NAME_LATN": "Innsbruck", "NUTS_NAME": "Innsbruck", "MOUNT_TYPE": 1, "URBN_TYPE": 1, "COAST_TYPE": null}, "geometry": {"type": "Point", "coordinates": [11.343889251000064, 47.200981384000045]}}, {"type": "Feature", "properties": {"NUTS_ID": "AT333", "LEVL_CODE": 3, "CNTR_CODE": "AT", "NAME_LATN": "Osttirol", "NUTS_NAME": "Osttirol", "MOUNT_TYPE": 1, "URBN_TYPE": 3, "COAST_TYPE": null}, "geometry": {"type": "Point", "coordinates": [12.52263461800004, 46.906209096000055]}}, {"type": "Feature", "properties": {"NUTS_ID": "AT334", "LEVL_CODE": 3, "CNTR_CODE": "AT", "NAME_LATN": "Tiroler Oberland", "NUTS_NAME": "Tiroler Oberland", "MOUNT_TYPE": 1, "URBN_TYPE": 3, "COAST_TYPE": null}, "geometry": {"type": "Point", "coordinates": [10.697745851000036, 47.06122216700004]}}, {"type": "Feature", "properties": {"NUTS_ID": "AT335", "LEVL_CODE": 3, "CNTR_CODE": "AT", "NAME_LATN": "Tiroler Unterland", "NUTS_NAME": "Tiroler Unterland", "MOUNT_TYPE": 1, "URBN_TYPE": 2, "COAST_TYPE": null}, "geometry": {"type": "Point", "coordinates": [12.023915266000074, 47.38977767400007]}}, {"type": "Feature", "properties": {"NUTS_ID": "AT341", "LEVL_CODE": 3, "CNTR_CODE": "AT", "NAME_LATN": "Bludenz-Bregenzer Wald", "NUTS_NAME": "Bludenz-Bregenzer Wald", "MOUNT_TYPE": 1, "URBN_TYPE": 2, "COAST_TYPE": null}, "geometry": {"type": "Point", "coordinates": [9.961282436000033, 47.18367229800003]}}, {"type": "Feature", "properties": {"NUTS_ID": "AT342", "LEVL_CODE": 3, "CNTR_CODE": "AT", "NAME_LATN": "Rheintal-Bodenseegebiet", "NUTS_NAME": "Rheintal-Bodenseegebiet", "MOUNT_TYPE": 1, "URBN_TYPE": 1, "COAST_TYPE": null}, "geometry": {"type": "Point", "coordinates": [9.725224811000032, 47.38674445700008]}}, {"type": "Feature", "properties": {"NUTS_ID": "BE100", "LEVL_CODE": 3, "CNTR_CODE": "BE", "NAME_LATN": "Arr. de Bruxelles-Capitale/Arr. Brussel-Hoofdstad", "NUTS_NAME": "Arr. de Bruxelles-Capitale/Arr. Brussel-Hoofdstad", "MOUNT_TYPE": null, "URBN_TYPE": 1, "COAST_TYPE": null}, "geometry": {"type": "Point", "coordinates": [4.37077991600006, 50.835899598000026]}}, {"type": "Feature", "properties": {"NUTS_ID": "BE211", "LEVL_CODE": 3, "CNTR_CODE": "BE", "NAME_LATN": "Arr. Antwerpen", "NUTS_NAME": "Arr. Antwerpen", "MOUNT_TYPE": null, "URBN_TYPE": 1, "COAST_TYPE": 1}, "geometry": {"type": "Point", "coordinates": [4.506849586000044, 51.280385152000065]}}, {"type": "Feature", "properties": {"NUTS_ID": "BE212", "LEVL_CODE": 3, "CNTR_CODE": "BE", "NAME_LATN": "Arr. Mechelen", "NUTS_NAME": "Arr. Mechelen", "MOUNT_TYPE": null, "URBN_TYPE": 1, "COAST_TYPE": 1}, "geometry": {"type": "Point", "coordinates": [4.526180508000039, 51.07467422600007]}}, {"type": "Feature", "properties": {"NUTS_ID": "BE213", "LEVL_CODE": 3, "CNTR_CODE": "BE", "NAME_LATN": "Arr. Turnhout", "NUTS_NAME": "Arr. Turnhout", "MOUNT_TYPE": null, "URBN_TYPE": 2, "COAST_TYPE": null}, "geometry": {"type": "Point", "coordinates": [4.95041274700003, 51.24978534600007]}}, {"type": "Feature", "properties": {"NUTS_ID": "BE223", "LEVL_CODE": 3, "CNTR_CODE": "BE", "NAME_LATN": "Arr. Tongeren", "NUTS_NAME": "Arr. Tongeren", "MOUNT_TYPE": null, "URBN_TYPE": 2, "COAST_TYPE": null}, "geometry": {"type": "Point", "coordinates": [5.500907500000039, 50.823388]}}, {"type": "Feature", "properties": {"NUTS_ID": "BE224", "LEVL_CODE": 3, "CNTR_CODE": "BE", "NAME_LATN": "Arr. Hasselt", "NUTS_NAME": "Arr. Hasselt", "MOUNT_TYPE": null, "URBN_TYPE": 1, "COAST_TYPE": null}, "geometry": {"type": "Point", "coordinates": [5.276016600000048, 50.95143943800008]}}, {"type": "Feature", "properties": {"NUTS_ID": "BE225", "LEVL_CODE": 3, "CNTR_CODE": "BE", "NAME_LATN": "Arr. Maaseik", "NUTS_NAME": "Arr. Maaseik", "MOUNT_TYPE": null, "URBN_TYPE": 2, "COAST_TYPE": null}, "geometry": {"type": "Point", "coordinates": [5.516903398000068, 51.13674195700003]}}, {"type": "Feature", "properties": {"NUTS_ID": "BE231", "LEVL_CODE": 3, "CNTR_CODE": "BE", "NAME_LATN": "Arr. Aalst", "NUTS_NAME": "Arr. Aalst", "MOUNT_TYPE": null, "URBN_TYPE": 1, "COAST_TYPE": 1}, "geometry": {"type": "Point", "coordinates": [3.948586120000073, 50.874921595000046]}}, {"type": "Feature", "properties": {"NUTS_ID": "BE232", "LEVL_CODE": 3, "CNTR_CODE": "BE", "NAME_LATN": "Arr. Dendermonde", "NUTS_NAME": "Arr. Dendermonde", "MOUNT_TYPE": null, "URBN_TYPE": 1, "COAST_TYPE": 1}, "geometry": {"type": "Point", "coordinates": [4.03557650700003, 51.03875676600006]}}, {"type": "Feature", "properties": {"NUTS_ID": "BE233", "LEVL_CODE": 3, "CNTR_CODE": "BE", "NAME_LATN": "Arr. Eeklo", "NUTS_NAME": "Arr. Eeklo", "MOUNT_TYPE": null, "URBN_TYPE": 1, "COAST_TYPE": 1}, "geometry": {"type": "Point", "coordinates": [3.608384500000057, 51.23601522000007]}}, {"type": "Feature", "properties": {"NUTS_ID": "BE234", "LEVL_CODE": 3, "CNTR_CODE": "BE", "NAME_LATN": "Arr. Gent", "NUTS_NAME": "Arr. Gent", "MOUNT_TYPE": null, "URBN_TYPE": 1, "COAST_TYPE": 1}, "geometry": {"type": "Point", "coordinates": [3.664068303000022, 51.06061901800007]}}, {"type": "Feature", "properties": {"NUTS_ID": "BE235", "LEVL_CODE": 3, "CNTR_CODE": "BE", "NAME_LATN": "Arr. Oudenaarde", "NUTS_NAME": "Arr. Oudenaarde", "MOUNT_TYPE": null, "URBN_TYPE": 2, "COAST_TYPE": null}, "geometry": {"type": "Point", "coordinates": [3.638031519000037, 50.83291069200004]}}, {"type": "Feature", "properties": {"NUTS_ID": "BE236", "LEVL_CODE": 3, "CNTR_CODE": "BE", "NAME_LATN": "Arr. Sint-Niklaas", "NUTS_NAME": "Arr. Sint-Niklaas", "MOUNT_TYPE": null, "URBN_TYPE": 1, "COAST_TYPE": 1}, "geometry": {"type": "Point", "coordinates": [4.142939326000032, 51.19479318200007]}}, {"type": "Feature", "properties": {"NUTS_ID": "BE241", "LEVL_CODE": 3, "CNTR_CODE": "BE", "NAME_LATN": "Arr. Halle-Vilvoorde", "NUTS_NAME": "Arr. Halle-Vilvoorde", "MOUNT_TYPE": null, "URBN_TYPE": 1, "COAST_TYPE": null}, "geometry": {"type": "Point", "coordinates": [4.253812, 50.755657238000026]}}, {"type": "Feature", "properties": {"NUTS_ID": "BE242", "LEVL_CODE": 3, "CNTR_CODE": "BE", "NAME_LATN": "Arr. Leuven", "NUTS_NAME": "Arr. Leuven", "MOUNT_TYPE": null, "URBN_TYPE": 2, "COAST_TYPE": null}, "geometry": {"type": "Point", "coordinates": [4.848488681000049, 50.89026733900005]}}, {"type": "Feature", "properties": {"NUTS_ID": "BE251", "LEVL_CODE": 3, "CNTR_CODE": "BE", "NAME_LATN": "Arr. Brugge", "NUTS_NAME": "Arr. Brugge", "MOUNT_TYPE": null, "URBN_TYPE": 1, "COAST_TYPE": 1}, "geometry": {"type": "Point", "coordinates": [3.220437574000073, 51.20296536400008]}}, {"type": "Feature", "properties": {"NUTS_ID": "BE252", "LEVL_CODE": 3, "CNTR_CODE": "BE", "NAME_LATN": "Arr. Diksmuide", "NUTS_NAME": "Arr. Diksmuide", "MOUNT_TYPE": null, "URBN_TYPE": 2, "COAST_TYPE": 1}, "geometry": {"type": "Point", "coordinates": [2.881220997000071, 51.021505372000036]}}, {"type": "Feature", "properties": {"NUTS_ID": "BE253", "LEVL_CODE": 3, "CNTR_CODE": "BE", "NAME_LATN": "Arr. Ieper", "NUTS_NAME": "Arr. Ieper", "MOUNT_TYPE": null, "URBN_TYPE": 3, "COAST_TYPE": 1}, "geometry": {"type": "Point", "coordinates": [2.851638433000062, 50.84972139100006]}}, {"type": "Feature", "properties": {"NUTS_ID": "BE254", "LEVL_CODE": 3, "CNTR_CODE": "BE", "NAME_LATN": "Arr. Kortrijk", "NUTS_NAME": "Arr. Kortrijk", "MOUNT_TYPE": null, "URBN_TYPE": 1, "COAST_TYPE": null}, "geometry": {"type": "Point", "coordinates": [3.318032812000069, 50.82008501400003]}}, {"type": "Feature", "properties": {"NUTS_ID": "BE255", "LEVL_CODE": 3, "CNTR_CODE": "BE", "NAME_LATN": "Arr. Oostende", "NUTS_NAME": "Arr. Oostende", "MOUNT_TYPE": null, "URBN_TYPE": 1, "COAST_TYPE": 1}, "geometry": {"type": "Point", "coordinates": [2.953263737000043, 51.17671090200008]}}, {"type": "Feature", "properties": {"NUTS_ID": "BE256", "LEVL_CODE": 3, "CNTR_CODE": "BE", "NAME_LATN": "Arr. Roeselare", "NUTS_NAME": "Arr. Roeselare", "MOUNT_TYPE": null, "URBN_TYPE": 2, "COAST_TYPE": 1}, "geometry": {"type": "Point", "coordinates": [3.116714977000072, 50.940308480000056]}}, {"type": "Feature", "properties": {"NUTS_ID": "BE257", "LEVL_CODE": 3, "CNTR_CODE": "BE", "NAME_LATN": "Arr. Tielt", "NUTS_NAME": "Arr. Tielt", "MOUNT_TYPE": null, "URBN_TYPE": 2, "COAST_TYPE": 1}, "geometry": {"type": "Point", "coordinates": [3.313092229000063, 50.99957380400008]}}, {"type": "Feature", "properties": {"NUTS_ID": "BE258", "LEVL_CODE": 3, "CNTR_CODE": "BE", "NAME_LATN": "Arr. Veurne", "NUTS_NAME": "Arr. Veurne", "MOUNT_TYPE": null, "URBN_TYPE": 2, "COAST_TYPE": 1}, "geometry": {"type": "Point", "coordinates": [2.67651672300002, 51.047846105000076]}}, {"type": "Feature", "properties": {"NUTS_ID": "BE310", "LEVL_CODE": 3, "CNTR_CODE": "BE", "NAME_LATN": "Arr. Nivelles", "NUTS_NAME": "Arr. Nivelles", "MOUNT_TYPE": null, "URBN_TYPE": 2, "COAST_TYPE": null}, "geometry": {"type": "Point", "coordinates": [4.583844044000045, 50.669330477000074]}}, {"type": "Feature", "properties": {"NUTS_ID": "BE323", "LEVL_CODE": 3, "CNTR_CODE": "BE", "NAME_LATN": "Arr. Mons", "NUTS_NAME": "Arr. Mons", "MOUNT_TYPE": null, "URBN_TYPE": 1, "COAST_TYPE": null}, "geometry": {"type": "Point", "coordinates": [3.871923888000026, 50.44521035100007]}}, {"type": "Feature", "properties": {"NUTS_ID": "BE328", "LEVL_CODE": 3, "CNTR_CODE": "BE", "NAME_LATN": "Arr. Tournai-Mouscron", "NUTS_NAME": "Arr. Tournai-Mouscron", "MOUNT_TYPE": null, "URBN_TYPE": 2, "COAST_TYPE": null}, "geometry": {"type": "Point", "coordinates": [3.436272765000069, 50.62278114000003]}}, {"type": "Feature", "properties": {"NUTS_ID": "BE329", "LEVL_CODE": 3, "CNTR_CODE": "BE", "NAME_LATN": "Arr. La Louvière", "NUTS_NAME": "Arr. La Louvière", "MOUNT_TYPE": null, "URBN_TYPE": 1, "COAST_TYPE": null}, "geometry": {"type": "Point", "coordinates": [4.151717688000076, 50.42131755300005]}}, {"type": "Feature", "properties": {"NUTS_ID": "BE32A", "LEVL_CODE": 3, "CNTR_CODE": "BE", "NAME_LATN": "Arr. Ath", "NUTS_NAME": "Arr. Ath", "MOUNT_TYPE": null, "URBN_TYPE": 2, "COAST_TYPE": null}, "geometry": {"type": "Point", "coordinates": [3.769537430000071, 50.64051852700004]}}, {"type": "Feature", "properties": {"NUTS_ID": "BE32B", "LEVL_CODE": 3, "CNTR_CODE": "BE", "NAME_LATN": "Arr. Charleroi", "NUTS_NAME": "Arr. Charleroi", "MOUNT_TYPE": null, "URBN_TYPE": 1, "COAST_TYPE": null}, "geometry": {"type": "Point", "coordinates": [4.442961356000069, 50.444830370000034]}}, {"type": "Feature", "properties": {"NUTS_ID": "BE32C", "LEVL_CODE": 3, "CNTR_CODE": "BE", "NAME_LATN": "Arr. Soignies", "NUTS_NAME": "Arr. Soignies", "MOUNT_TYPE": null, "URBN_TYPE": 1, "COAST_TYPE": null}, "geometry": {"type": "Point", "coordinates": [4.135994861000029, 50.563317135000034]}}, {"type": "Feature", "properties": {"NUTS_ID": "BE32D", "LEVL_CODE": 3, "CNTR_CODE": "BE", "NAME_LATN": "Arr. Thuin", "NUTS_NAME": "Arr. Thuin", "MOUNT_TYPE": null, "URBN_TYPE": 3, "COAST_TYPE": null}, "geometry": {"type": "Point", "coordinates": [4.280408080000029, 50.17532283700007]}}, {"type": "Feature", "properties": {"NUTS_ID": "BE331", "LEVL_CODE": 3, "CNTR_CODE": "BE", "NAME_LATN": "Arr. Huy", "NUTS_NAME": "Arr. Huy", "MOUNT_TYPE": null, "URBN_TYPE": 3, "COAST_TYPE": null}, "geometry": {"type": "Point", "coordinates": [5.339112881000062, 50.495123138000054]}}, {"type": "Feature", "properties": {"NUTS_ID": "BE332", "LEVL_CODE": 3, "CNTR_CODE": "BE", "NAME_LATN": "Arr. Liège", "NUTS_NAME": "Arr. Liège", "MOUNT_TYPE": null, "URBN_TYPE": 1, "COAST_TYPE": null}, "geometry": {"type": "Point", "coordinates": [5.584129500000074, 50.617309119000026]}}, {"type": "Feature", "properties": {"NUTS_ID": "BE334", "LEVL_CODE": 3, "CNTR_CODE": "BE", "NAME_LATN": "Arr. Waremme", "NUTS_NAME": "Arr. Waremme", "MOUNT_TYPE": null, "URBN_TYPE": 3, "COAST_TYPE": null}, "geometry": {"type": "Point", "coordinates": [5.197821630000021, 50.66655872900003]}}, {"type": "Feature", "properties": {"NUTS_ID": "BE335", "LEVL_CODE": 3, "CNTR_CODE": "BE", "NAME_LATN": "Arr. Verviers — communes francophones", "NUTS_NAME": "Arr. Verviers — communes francophones", "MOUNT_TYPE": 1, "URBN_TYPE": 2, "COAST_TYPE": null}, "geometry": {"type": "Point", "coordinates": [5.917200046000062, 50.498809006000045]}}, {"type": "Feature", "properties": {"NUTS_ID": "BE336", "LEVL_CODE": 3, "CNTR_CODE": "BE", "NAME_LATN": "Bezirk Verviers — Deutschsprachige Gemeinschaft", "NUTS_NAME": "Bezirk Verviers — Deutschsprachige Gemeinschaft", "MOUNT_TYPE": null, "URBN_TYPE": 3, "COAST_TYPE": null}, "geometry": {"type": "Point", "coordinates": [6.188988400000028, 50.33760883600007]}}, {"type": "Feature", "properties": {"NUTS_ID": "BE341", "LEVL_CODE": 3, "CNTR_CODE": "BE", "NAME_LATN": "Arr. Arlon", "NUTS_NAME": "Arr. Arlon", "MOUNT_TYPE": null, "URBN_TYPE": 3, "COAST_TYPE": null}, "geometry": {"type": "Point", "coordinates": [5.779728939000051, 49.67933586600003]}}, {"type": "Feature", "properties": {"NUTS_ID": "BE342", "LEVL_CODE": 3, "CNTR_CODE": "BE", "NAME_LATN": "Arr. Bastogne", "NUTS_NAME": "Arr. Bastogne", "MOUNT_TYPE": null, "URBN_TYPE": 3, "COAST_TYPE": null}, "geometry": {"type": "Point", "coordinates": [5.748008736000031, 50.08437720200004]}}, {"type": "Feature", "properties": {"NUTS_ID": "BE343", "LEVL_CODE": 3, "CNTR_CODE": "BE", "NAME_LATN": "Arr. Marche-en-Famenne", "NUTS_NAME": "Arr. Marche-en-Famenne", "MOUNT_TYPE": null, "URBN_TYPE": 3, "COAST_TYPE": null}, "geometry": {"type": "Point", "coordinates": [5.499298925000062, 50.230043987000045]}}, {"type": "Feature", "properties": {"NUTS_ID": "BE344", "LEVL_CODE": 3, "CNTR_CODE": "BE", "NAME_LATN": "Arr. Neufchâteau", "NUTS_NAME": "Arr. Neufchâteau", "MOUNT_TYPE": null, "URBN_TYPE": 3, "COAST_TYPE": null}, "geometry": {"type": "Point", "coordinates": [5.293742831000031, 49.91089556900005]}}, {"type": "Feature", "properties": {"NUTS_ID": "BE345", "LEVL_CODE": 3, "CNTR_CODE": "BE", "NAME_LATN": "Arr. Virton", "NUTS_NAME": "Arr. Virton", "MOUNT_TYPE": null, "URBN_TYPE": 3, "COAST_TYPE": null}, "geometry": {"type": "Point", "coordinates": [5.594063250000033, 49.64630024500008]}}, {"type": "Feature", "properties": {"NUTS_ID": "BE351", "LEVL_CODE": 3, "CNTR_CODE": "BE", "NAME_LATN": "Arr. Dinant", "NUTS_NAME": "Arr. Dinant", "MOUNT_TYPE": null, "URBN_TYPE": 3, "COAST_TYPE": null}, "geometry": {"type": "Point", "coordinates": [5.025537703000055, 50.16572858100005]}}, {"type": "Feature", "properties": {"NUTS_ID": "BE352", "LEVL_CODE": 3, "CNTR_CODE": "BE", "NAME_LATN": "Arr. Namur", "NUTS_NAME": "Arr. Namur", "MOUNT_TYPE": null, "URBN_TYPE": 2, "COAST_TYPE": null}, "geometry": {"type": "Point", "coordinates": [4.897201250000023, 50.49270319500005]}}, {"type": "Feature", "properties": {"NUTS_ID": "BE353", "LEVL_CODE": 3, "CNTR_CODE": "BE", "NAME_LATN": "Arr. Philippeville", "NUTS_NAME": "Arr. Philippeville", "MOUNT_TYPE": null, "URBN_TYPE": 3, "COAST_TYPE": null}, "geometry": {"type": "Point", "coordinates": [4.550586912000028, 50.14851030700004]}}, {"type": "Feature", "properties": {"NUTS_ID": "BG311", "LEVL_CODE": 3, "CNTR_CODE": "BG", "NAME_LATN": "Vidin", "NUTS_NAME": "Видин", "MOUNT_TYPE": null, "URBN_TYPE": 3, "COAST_TYPE": null}, "geometry": {"type": "Point", "coordinates": [22.69735550300004, 43.80220467000004]}}, {"type": "Feature", "properties": {"NUTS_ID": "BG312", "LEVL_CODE": 3, "CNTR_CODE": "BG", "NAME_LATN": "Montana", "NUTS_NAME": "Монтана", "MOUNT_TYPE": null, "URBN_TYPE": 2, "COAST_TYPE": null}, "geometry": {"type": "Point", "coordinates": [23.20527096400008, 43.50052579100003]}}, {"type": "Feature", "properties": {"NUTS_ID": "BG313", "LEVL_CODE": 3, "CNTR_CODE": "BG", "NAME_LATN": "Vratsa", "NUTS_NAME": "Враца", "MOUNT_TYPE": null, "URBN_TYPE": 2, "COAST_TYPE": null}, "geometry": {"type": "Point", "coordinates": [23.75499856400006, 43.400163691000046]}}, {"type": "Feature", "properties": {"NUTS_ID": "BG314", "LEVL_CODE": 3, "CNTR_CODE": "BG", "NAME_LATN": "Pleven", "NUTS_NAME": "Плевен", "MOUNT_TYPE": null, "URBN_TYPE": 2, "COAST_TYPE": null}, "geometry": {"type": "Point", "coordinates": [24.599839729000053, 43.47714909300004]}}, {"type": "Feature", "properties": {"NUTS_ID": "BG315", "LEVL_CODE": 3, "CNTR_CODE": "BG", "NAME_LATN": "Lovech", "NUTS_NAME": "Ловеч", "MOUNT_TYPE": 1, "URBN_TYPE": 3, "COAST_TYPE": null}, "geometry": {"type": "Point", "coordinates": [24.556857269000034, 43.02380856500008]}}, {"type": "Feature", "properties": {"NUTS_ID": "BG321", "LEVL_CODE": 3, "CNTR_CODE": "BG", "NAME_LATN": "Veliko Tarnovo", "NUTS_NAME": "Велико Търново", "MOUNT_TYPE": null, "URBN_TYPE": 2, "COAST_TYPE": null}, "geometry": {"type": "Point", "coordinates": [25.630533331000038, 43.188781317000064]}}, {"type": "Feature", "properties": {"NUTS_ID": "BG322", "LEVL_CODE": 3, "CNTR_CODE": "BG", "NAME_LATN": "Gabrovo", "NUTS_NAME": "Габрово", "MOUNT_TYPE": 1, "URBN_TYPE": 2, "COAST_TYPE": null}, "geometry": {"type": "Point", "coordinates": [25.23370449300006, 42.93318696800003]}}, {"type": "Feature", "properties": {"NUTS_ID": "BG323", "LEVL_CODE": 3, "CNTR_CODE": "BG", "NAME_LATN": "Ruse", "NUTS_NAME": "Русе", "MOUNT_TYPE": null, "URBN_TYPE": 2, "COAST_TYPE": null}, "geometry": {"type": "Point", "coordinates": [25.99343261200005, 43.671709503000045]}}, {"type": "Feature", "properties": {"NUTS_ID": "BG324", "LEVL_CODE": 3, "CNTR_CODE": "BG", "NAME_LATN": "Razgrad", "NUTS_NAME": "Разград", "MOUNT_TYPE": null, "URBN_TYPE": 3, "COAST_TYPE": null}, "geometry": {"type": "Point", "coordinates": [26.595712082000034, 43.645534432000034]}}, {"type": "Feature", "properties": {"NUTS_ID": "BG325", "LEVL_CODE": 3, "CNTR_CODE": "BG", "NAME_LATN": "Silistra", "NUTS_NAME": "Силистра", "MOUNT_TYPE": null, "URBN_TYPE": 3, "COAST_TYPE": null}, "geometry": {"type": "Point", "coordinates": [27.042370993000077, 43.94211146600003]}}, {"type": "Feature", "properties": {"NUTS_ID": "BG331", "LEVL_CODE": 3, "CNTR_CODE": "BG", "NAME_LATN": "Varna", "NUTS_NAME": "Варна", "MOUNT_TYPE": null, "URBN_TYPE": 2, "COAST_TYPE": 1}, "geometry": {"type": "Point", "coordinates": [27.58685175000005, 43.18237361400003]}}, {"type": "Feature", "properties": {"NUTS_ID": "BG332", "LEVL_CODE": 3, "CNTR_CODE": "BG", "NAME_LATN": "Dobrich", "NUTS_NAME": "Добрич", "MOUNT_TYPE": null, "URBN_TYPE": 2, "COAST_TYPE": 1}, "geometry": {"type": "Point", "coordinates": [27.927950947000056, 43.64900535600003]}}, {"type": "Feature", "properties": {"NUTS_ID": "BG333", "LEVL_CODE": 3, "CNTR_CODE": "BG", "NAME_LATN": "Shumen", "NUTS_NAME": "Шумен", "MOUNT_TYPE": null, "URBN_TYPE": 2, "COAST_TYPE": null}, "geometry": {"type": "Point", "coordinates": [26.996550268000078, 43.293697621000035]}}, {"type": "Feature", "properties": {"NUTS_ID": "BG334", "LEVL_CODE": 3, "CNTR_CODE": "BG", "NAME_LATN": "Targovishte", "NUTS_NAME": "Търговище", "MOUNT_TYPE": null, "URBN_TYPE": 2, "COAST_TYPE": null}, "geometry": {"type": "Point", "coordinates": [26.35489203900005, 43.24659379500008]}}, {"type": "Feature", "properties": {"NUTS_ID": "BG341", "LEVL_CODE": 3, "CNTR_CODE": "BG", "NAME_LATN": "Burgas", "NUTS_NAME": "Бургас", "MOUNT_TYPE": null, "URBN_TYPE": 2, "COAST_TYPE": 1}, "geometry": {"type": "Point", "coordinates": [27.30416191300003, 42.49097244500007]}}, {"type": "Feature", "properties": {"NUTS_ID": "BG342", "LEVL_CODE": 3, "CNTR_CODE": "BG", "NAME_LATN": "Sliven", "NUTS_NAME": "Сливен", "MOUNT_TYPE": 1, "URBN_TYPE": 2, "COAST_TYPE": null}, "geometry": {"type": "Point", "coordinates": [26.235564198000077, 42.66878883100003]}}, {"type": "Feature", "properties": {"NUTS_ID": "BG343", "LEVL_CODE": 3, "CNTR_CODE": "BG", "NAME_LATN": "Yambol", "NUTS_NAME": "Ямбол", "MOUNT_TYPE": null, "URBN_TYPE": 2, "COAST_TYPE": null}, "geometry": {"type": "Point", "coordinates": [26.625992970000027, 42.290276068000026]}}, {"type": "Feature", "properties": {"NUTS_ID": "BG344", "LEVL_CODE": 3, "CNTR_CODE": "BG", "NAME_LATN": "Stara Zagora", "NUTS_NAME": "Стара Загора", "MOUNT_TYPE": 1, "URBN_TYPE": 2, "COAST_TYPE": null}, "geometry": {"type": "Point", "coordinates": [25.547065330000066, 42.42483578900004]}}, {"type": "Feature", "properties": {"NUTS_ID": "BG411", "LEVL_CODE": 3, "CNTR_CODE": "BG", "NAME_LATN": "Sofia (stolitsa)", "NUTS_NAME": "София (столица)", "MOUNT_TYPE": 1, "URBN_TYPE": 1, "COAST_TYPE": null}, "geometry": {"type": "Point", "coordinates": [23.36488225000005, 42.673445722000054]}}, {"type": "Feature", "properties": {"NUTS_ID": "BG412", "LEVL_CODE": 3, "CNTR_CODE": "BG", "NAME_LATN": "Sofia", "NUTS_NAME": "София", "MOUNT_TYPE": 1, "URBN_TYPE": 2, "COAST_TYPE": null}, "geometry": {"type": "Point", "coordinates": [23.615878750000036, 42.28703481900004]}}, {"type": "Feature", "properties": {"NUTS_ID": "BG413", "LEVL_CODE": 3, "CNTR_CODE": "BG", "NAME_LATN": "Blagoevgrad", "NUTS_NAME": "Благоевград", "MOUNT_TYPE": 1, "URBN_TYPE": 2, "COAST_TYPE": null}, "geometry": {"type": "Point", "coordinates": [23.43804054000003, 41.724076955000044]}}, {"type": "Feature", "properties": {"NUTS_ID": "BG414", "LEVL_CODE": 3, "CNTR_CODE": "BG", "NAME_LATN": "Pernik", "NUTS_NAME": "Перник", "MOUNT_TYPE": 1, "URBN_TYPE": 2, "COAST_TYPE": null}, "geometry": {"type": "Point", "coordinates": [22.854529299000035, 42.621918245000074]}}, {"type": "Feature", "properties": {"NUTS_ID": "BG415", "LEVL_CODE": 3, "CNTR_CODE": "BG", "NAME_LATN": "Kyustendil", "NUTS_NAME": "Кюстендил", "MOUNT_TYPE": 1, "URBN_TYPE": 2, "COAST_TYPE": null}, "geometry": {"type": "Point", "coordinates": [22.887837497000078, 42.258817634000025]}}, {"type": "Feature", "properties": {"NUTS_ID": "BG421", "LEVL_CODE": 3, "CNTR_CODE": "BG", "NAME_LATN": "Plovdiv", "NUTS_NAME": "Пловдив", "MOUNT_TYPE": 1, "URBN_TYPE": 2, "COAST_TYPE": null}, "geometry": {"type": "Point", "coordinates": [24.81514646100004, 42.25771587200006]}}, {"type": "Feature", "properties": {"NUTS_ID": "BG422", "LEVL_CODE": 3, "CNTR_CODE": "BG", "NAME_LATN": "Haskovo", "NUTS_NAME": "Хасково", "MOUNT_TYPE": null, "URBN_TYPE": 2, "COAST_TYPE": null}, "geometry": {"type": "Point", "coordinates": [25.927805483000043, 41.85155027600007]}}, {"type": "Feature", "properties": {"NUTS_ID": "BG423", "LEVL_CODE": 3, "CNTR_CODE": "BG", "NAME_LATN": "Pazardzhik", "NUTS_NAME": "Пазарджик", "MOUNT_TYPE": 1, "URBN_TYPE": 2, "COAST_TYPE": null}, "geometry": {"type": "Point", "coordinates": [24.14692812000004, 42.13891863300006]}}, {"type": "Feature", "properties": {"NUTS_ID": "BG424", "LEVL_CODE": 3, "CNTR_CODE": "BG", "NAME_LATN": "Smolyan", "NUTS_NAME": "Смолян", "MOUNT_TYPE": 1, "URBN_TYPE": 3, "COAST_TYPE": null}, "geometry": {"type": "Point", "coordinates": [24.660554896000065, 41.630034641000066]}}, {"type": "Feature", "properties": {"NUTS_ID": "BG425", "LEVL_CODE": 3, "CNTR_CODE": "BG", "NAME_LATN": "Kardzhali", "NUTS_NAME": "Кърджали", "MOUNT_TYPE": 1, "URBN_TYPE": 3, "COAST_TYPE": null}, "geometry": {"type": "Point", "coordinates": [25.42603874400004, 41.534898749000035]}}, {"type": "Feature", "properties": {"NUTS_ID": "CH011", "LEVL_CODE": 3, "CNTR_CODE": "CH", "NAME_LATN": "Vaud", "NUTS_NAME": "Vaud", "MOUNT_TYPE": 1, "URBN_TYPE": null, "COAST_TYPE": null}, "geometry": {"type": "Point", "coordinates": [6.647944771000027, 46.560683735000055]}}, {"type": "Feature", "properties": {"NUTS_ID": "CH012", "LEVL_CODE": 3, "CNTR_CODE": "CH", "NAME_LATN": "Valais / Wallis", "NUTS_NAME": "Valais / Wallis", "MOUNT_TYPE": 1, "URBN_TYPE": null, "COAST_TYPE": null}, "geometry": {"type": "Point", "coordinates": [7.606018205000055, 46.20933153100003]}}, {"type": "Feature", "properties": {"NUTS_ID": "CH013", "LEVL_CODE": 3, "CNTR_CODE": "CH", "NAME_LATN": "Genève", "NUTS_NAME": "Genève", "MOUNT_TYPE": 1, "URBN_TYPE": null, "COAST_TYPE": null}, "geometry": {"type": "Point", "coordinates": [6.130848833000073, 46.216471134000074]}}, {"type": "Feature", "properties": {"NUTS_ID": "CH021", "LEVL_CODE": 3, "CNTR_CODE": "CH", "NAME_LATN": "Bern / Berne", "NUTS_NAME": "Bern / Berne", "MOUNT_TYPE": 1, "URBN_TYPE": null, "COAST_TYPE": null}, "geometry": {"type": "Point", "coordinates": [7.624668598000028, 46.82218741500003]}}, {"type": "Feature", "properties": {"NUTS_ID": "CH022", "LEVL_CODE": 3, "CNTR_CODE": "CH", "NAME_LATN": "Fribourg / Freiburg", "NUTS_NAME": "Fribourg / Freiburg", "MOUNT_TYPE": 1, "URBN_TYPE": null, "COAST_TYPE": null}, "geometry": {"type": "Point", "coordinates": [7.096605018000048, 46.70884928800007]}}, {"type": "Feature", "properties": {"NUTS_ID": "CH023", "LEVL_CODE": 3, "CNTR_CODE": "CH", "NAME_LATN": "Solothurn", "NUTS_NAME": "Solothurn", "MOUNT_TYPE": 1, "URBN_TYPE": null, "COAST_TYPE": null}, "geometry": {"type": "Point", "coordinates": [7.685647250000045, 47.33214500100007]}}, {"type": "Feature", "properties": {"NUTS_ID": "CH024", "LEVL_CODE": 3, "CNTR_CODE": "CH", "NAME_LATN": "Neuchâtel", "NUTS_NAME": "Neuchâtel", "MOUNT_TYPE": 1, "URBN_TYPE": null, "COAST_TYPE": null}, "geometry": {"type": "Point", "coordinates": [6.780345961000023, 46.99548715700007]}}, {"type": "Feature", "properties": {"NUTS_ID": "CH025", "LEVL_CODE": 3, "CNTR_CODE": "CH", "NAME_LATN": "Jura", "NUTS_NAME": "Jura", "MOUNT_TYPE": 1, "URBN_TYPE": null, "COAST_TYPE": null}, "geometry": {"type": "Point", "coordinates": [7.199865, 47.36546206500003]}}, {"type": "Feature", "properties": {"NUTS_ID": "CH031", "LEVL_CODE": 3, "CNTR_CODE": "CH", "NAME_LATN": "Basel-Stadt", "NUTS_NAME": "Basel-Stadt", "MOUNT_TYPE": null, "URBN_TYPE": null, "COAST_TYPE": null}, "geometry": {"type": "Point", "coordinates": [7.589764625000043, 47.55476172500005]}}, {"type": "Feature", "properties": {"NUTS_ID": "CH032", "LEVL_CODE": 3, "CNTR_CODE": "CH", "NAME_LATN": "Basel-Landschaft", "NUTS_NAME": "Basel-Landschaft", "MOUNT_TYPE": 1, "URBN_TYPE": null, "COAST_TYPE": null}, "geometry": {"type": "Point", "coordinates": [7.815204750000021, 47.43396026500005]}}, {"type": "Feature", "properties": {"NUTS_ID": "CH033", "LEVL_CODE": 3, "CNTR_CODE": "CH", "NAME_LATN": "Aargau", "NUTS_NAME": "Aargau", "MOUNT_TYPE": 1, "URBN_TYPE": null, "COAST_TYPE": null}, "geometry": {"type": "Point", "coordinates": [8.156736412000043, 47.40984658100007]}}, {"type": "Feature", "properties": {"NUTS_ID": "CH040", "LEVL_CODE": 3, "CNTR_CODE": "CH", "NAME_LATN": "Zürich", "NUTS_NAME": "Zürich", "MOUNT_TYPE": 1, "URBN_TYPE": null, "COAST_TYPE": null}, "geometry": {"type": "Point", "coordinates": [8.655129315000067, 47.41298276300006]}}, {"type": "Feature", "properties": {"NUTS_ID": "CH051", "LEVL_CODE": 3, "CNTR_CODE": "CH", "NAME_LATN": "Glarus", "NUTS_NAME": "Glarus", "MOUNT_TYPE": 1, "URBN_TYPE": null, "COAST_TYPE": null}, "geometry": {"type": "Point", "coordinates": [9.065821644000039, 46.98120816000005]}}, {"type": "Feature", "properties": {"NUTS_ID": "CH052", "LEVL_CODE": 3, "CNTR_CODE": "CH", "NAME_LATN": "Schaffhausen", "NUTS_NAME": "Schaffhausen", "MOUNT_TYPE": 1, "URBN_TYPE": null, "COAST_TYPE": null}, "geometry": {"type": "Point", "coordinates": [8.564433308000048, 47.72177477500003]}},